,grdc_no,wmo_reg,sub_reg,river,station,country,lat,long,area,altitude,d_start,d_end,d_yrs,d_miss,m_start,m_end,m_yrs,m_miss,t_start,t_end,t_yrs,lta_discharge,r_volume_yr,r_height_yr,shapefile_code,r2,NaNs
0,1159100,1,1591,ORANGE RIVER,VIOOLSDRIF (27811003),ZA,-28.75798997,17.72159144,866486,152,1935,2024,90,3.034414703,1935,2022,88,5.379442843,1935,2024,90,251.426,7.928970336,9.150719499,1,0.323815984,6
1,1159103,1,1591,ORANGE RIVER,PELLA MISSION,ZA,-28.96340283,19.15192169,859920,-999,1979,2024,46,5.668338021,1979,2022,44,8.7890625,1979,2024,46,132.007,4.162972752,4.841116327,1,0.335957072,1
2,1159105,1,1591,ORANGE RIVER,SENDELINGSDRIF,ZA,-28.07583333,16.89833333,985370,-999,2014,2024,11,21.41522029,2014,2020,7,0,2014,2024,11,30.913,0.974872368,0.989346507,1,0.018669058,27
3,1159125,1,1591,RENOSTERRIVIER,LEEUWENKUIL,ZA,-31.43716033,20.47416897,8938,-999,1987,2023,37,16.10259523,1987,2022,36,17.61904762,1987,2023,37,0.487,0.015358032,1.718285075,1,0.05641388,4
4,1159130,1,1591,SAK,HOL PADS LEEGTE (27814016),ZA,-30.47471203,20.51917583,40073,919,1973,2024,52,1.962666667,1973,2022,50,3.891708968,1973,2024,52,2.358,0.074361888,1.855660619,1,0.524582527,5
5,1159290,1,1591,ORANGE RIVER,KAKAMAS SOUTH NEUSBERG,ZA,-28.77466011,20.72242939,366070,-999,1993,2024,32,0.905539773,1993,2022,30,2.017291066,1993,2024,32,195.054,6.151222944,16.8034063,1,0.122617786,4
6,1159300,1,1591,ORANGE RIVER,UPINGTON,ZA,-28.45790547,21.23923533,364560,-999,1942,2024,83,2.478950723,1942,2022,81,4.079497908,1942,2024,83,188.521,5.945198256,16.30787321,1,0.212765637,1
7,1159301,1,1591,ORANGE RIVER,PRIESKA (27815102),ZA,-29.65171083,22.74591331,339310,947,1959,2024,66,6.892493906,1959,2022,64,11.7414248,1959,2024,66,163.363,5.151815568,15.18321172,1,0.056578487,0
8,1159302,1,1591,ORANGE RIVER,MARKSDRIFT (27815208),ZA,-29.16201978,23.69594394,99316,997,1962,2024,63,8.894209453,1962,2022,61,13.09192201,1962,2024,63,148.172,4.672752192,47.0493394,1,0.233319422,1
9,1159304,1,1591,ORANGE RIVER,IRENE,ZA,-29.1828515,23.57510692,296170,-999,1989,2024,36,29.84761312,1989,2022,34,36.75,1989,2024,36,226.36,7.13848896,24.102674,1,0.356823177,7
10,1159305,1,1591,SEEKOEIRIVIER,DE EERSTEPOORT,ZA,-30.53472222,24.9625,8266,-999,1980,2024,45,0.069191093,1980,2022,43,1.581027668,1980,2024,45,0.427,0.013465872,1.629067505,1,0.217409936,0
11,1159330,1,1591,RIET,KLIPDRIFT,ZA,-29.0425,24.59916667,31233,-999,1989,2024,36,0.094125029,1989,2022,34,0.253164557,1989,2024,36,7.378,0.232672608,7.449576025,2,0.45478299,0
12,1159335,1,1591,MODDER,TWEERIVIERE,ZA,-29.02861111,24.63833333,17313,-999,1989,2024,36,3.498977827,1989,2022,34,5.329949239,1989,2024,36,2.651,0.083601936,4.828853232,1,0.315505868,0
13,1159400,1,1591,HARTS,TAUNG (27817303),ZA,-27.57350603,24.74598156,11044,1091,1923,2024,102,1.826210205,1923,2022,100,3.797468354,1923,2024,102,1.182,0.037275552,3.375185802,1,0.328127179,1
14,1159403,1,1591,HARTS,ESPAGSDRIF,ZA,-27.90320789,24.61514311,23900,-999,1951,2023,73,3.355350066,1951,2022,72,8.079625293,1951,2023,73,4.754,0.149922144,6.272893054,1,0.054658294,1
15,1159405,1,1591,HARTS,LLOYDS,ZA,-28.38651139,24.29707622,30810,-999,1994,2024,31,14.04935502,1994,2022,29,21.45015106,1994,2024,31,1.291,0.040712976,1.321420837,1,0.367596352,1
16,1159413,1,1591,VETRIVIER,FIZANTKRAAL,ZA,-27.935,26.12444444,16153,-999,1968,2023,56,3.352428394,1968,2022,55,7.142857143,1968,2023,56,6.88,0.21696768,13.43203615,1,0.412781441,0
17,1159415,1,1591,VETRIVIER,VAALKOPPIES,ZA,-28.14444444,26.41805556,6994,-999,2003,2023,21,4.014396456,2003,2022,20,5.429864253,2003,2023,21,4.596,0.144939456,20.72339949,2,0.432414356,1
18,1159417,1,1591,SANDRIVIER,BLOUDRIF,ZA,-28.11722222,26.71916667,7092,-999,1995,2023,29,26.33427651,1995,2022,28,30.06329114,1995,2023,29,4.819,0.151971984,21.42864975,2,0.428968708,12
19,1159450,1,1591,VAAL RIVER,SCHMIDTSDRIF,ZA,-28.71149156,24.07290156,157830,-999,1995,2024,30,10.92603049,1995,2022,28,15.85365854,1995,2024,30,55.062,1.736435232,11.00193393,1,0.309870967,1
20,1159490,1,1591,VAAL RIVER,DE HOOP 65,ZA,-28.51622689,24.60069589,121220,-999,1968,2024,57,3.887082471,1968,2022,55,7.120743034,1968,2024,57,40.585,1.27988856,10.55839432,1,0.285184188,4
21,1159510,1,1591,VALSRIVIER,GROOTDRAAI (27817602),ZA,-27.39861111,26.61333333,7801,1259,1950,2023,74,65.6438253,1951,2022,72,67.60233918,1950,2023,74,1.002,0.031599072,4.050643764,1,0.357858636,5
22,1159525,1,1591,RENOSTERRIVIER,ARRIESRUST,ZA,-27.04628,27.00464,5758,-999,1978,2023,46,3.683862036,1978,2022,45,7.924528302,1978,2023,46,3.892,0.122738112,21.31610142,1,0.456759961,14
23,1159535,1,1591,VAAL RIVER,KLIPPLAATDRIFT,ZA,-27.38972222,26.46388889,79903,-999,1972,2024,53,0.326092673,1972,2022,51,0.663349917,1972,2024,53,68.375,2.156274,26.9861457,1,0.459827634,1
24,1159545,1,1591,VAAL RIVER,PILGRIMS ESTATE,ZA,-27.01011,26.69808,63437,-999,1979,2024,46,2.834453268,1979,2022,44,9.126213592,1979,2024,46,57.068,1.799696448,28.36982278,1,0.403714684,6
25,1159550,1,1591,VAAL RIVER,DE VAAL,ZA,-26.97056,27.20967,49120,-999,1938,2024,87,4.272957142,1938,2022,85,9.06374502,1938,2024,87,57.844,1.824168384,37.1369785,1,0.310041444,21
26,1159555,1,1591,VAAL RIVER,WOODLANDS,ZA,-26.73828,27.59197,47222,-999,1996,2024,29,11.46953405,1997,2022,26,20.26143791,1996,2024,29,59.906,1.889195616,40.00668366,1,0.352536963,1
27,1159650,1,1591,ORANGE RIVER,ALIWAL NOORD (27819103),ZA,-30.67833333,26.71638889,37070,1298,1914,2024,111,0.802377415,1914,2022,109,1.384615385,1914,2024,111,143.241,4.517248176,121.8572478,1,0.216981379,1
28,1159651,1,1591,ORANGE RIVER,ORANJEDRAAI (27819109),ZA,-30.33638889,27.35861111,24745,1394,1960,2024,65,2.486259018,1960,2022,63,7.432432432,1960,2024,65,125.312,3.951839232,159.7025351,1,0.213332109,0
29,1159655,1,1591,ORANGE RIVER,LESOTHO - MANTILANE,ZA,-30.06186111,28.50975,10735,-999,1987,2024,38,1.974465558,1987,2022,36,3.800475059,1987,2024,38,48.177,1.519309872,141.5286327,1,0.036301486,1
30,1159660,1,1591,KRAAIRIVIER,ROODEWAL (27819111),ZA,-30.83055556,26.92055556,8689,1320,1965,2024,60,5.12904894,1965,2022,58,9.278350515,1965,2024,60,21.834,0.688557024,79.24467994,1,0.250903069,0
31,1159675,1,1591,CALEDON RIVER,WILGERDRAAI,ZA,-29.61666667,27.06555556,12852,-999,1988,2024,37,6.158447734,1988,2022,35,10.69651741,1988,2024,37,32.182,1.014891552,78.96759664,1,0.152916002,0
32,1159805,1,1591,WILGERIVIER,FRANKFORT,ZA,-27.27166667,28.49111111,15673,-999,1913,2024,112,2.258376049,1913,2022,110,4.377880184,1913,2024,112,28.611,0.902276496,57.56884425,1,0.414477658,0
33,1159813,1,1591,WILGERIVIER,BALLINGTOMP,ZA,-27.30138889,28.58555556,10489,-999,1985,2023,39,1.998577525,1985,2022,38,3.16027088,1985,2023,39,25.574,0.806501664,76.89023396,1,0.339852057,1
34,1159815,1,1591,WILGERIVIER,BAVARIA,ZA,-27.80277778,28.7675,7497,-999,1988,2023,36,9.177468395,1989,2022,34,11.72069825,1988,2023,36,28.546,0.900226656,120.0782521,1,0.488695185,0
35,1159880,1,1591,VAAL RIVER,NOOITGEDACHT,ZA,-27.00231,28.76528,15500,-999,1985,2024,40,2.639565248,1985,2022,38,5.89569161,1985,2024,40,29.102,0.917760672,59.21036594,1,0.435197823,2
36,1160235,1,1606,DORINGRIVIER,MELKBOOM,ZA,-31.8625,18.68638889,24044,-999,1927,2024,98,1.197909309,1927,2022,96,3.072870939,1927,2024,98,11.758,0.370800288,15.42173881,1,0.174117934,1
37,1160303,1,1600,BREE,WOLVENDRIFT,ZA,-33.89777778,20.01166667,6713,-999,1970,2023,54,1.69292144,1970,2022,53,4.625199362,1970,2023,54,24.882,0.784678752,116.8894313,1,0.121335693,1
38,1160305,1,1600,BREE,SWELLEN DAM,ZA,-34.0675,20.40555556,9842,-999,1966,2023,58,1.288696562,1966,2022,57,2.522255193,1966,2023,58,33.482,1.055888352,107.2839212,1,0.127972423,1
39,1160320,1,1606,DORINGRIVIER,ELANDS DRIFT - ASPOORT (27712202),ZA,-32.50277778,19.535,6895,389,1923,2023,101,3.618474993,1923,2022,100,5.803195963,1923,2023,101,7.973,0.251436528,36.46650152,1,0.204726158,2
40,1160352,1,1605,TOUWS,OKKERSKRAAL,ZA,-33.69388889,21.14305556,5837,-999,1982,2023,42,1.052008679,1982,2022,41,3.105590062,1982,2023,42,0.509,0.016051824,2.750012678,1,0.174546026,0
41,1160353,1,1605,GROOTRIVIER,BUFFELSFONTEIN,ZA,-33.74916667,21.44444444,12493,-999,1982,2024,43,0.77932199,1982,2022,41,2.928870293,1982,2024,43,1.444,0.045537984,3.645079965,1,0.20065087,0
42,1160373,1,1605,GOURITZ,ZEEKOEDRIFT,ZA,-33.98027778,21.65333333,43451,-999,1964,2024,61,25.93403586,1964,2022,59,29.04148784,1964,2024,61,2.796,0.088174656,2.029289452,1,0.389551038,1
43,1160376,1,1605,GAMKARIVIER,HUIS RIVER,ZA,-33.50222222,21.62277778,17810,-999,1982,2024,43,1.47356067,1982,2022,41,2.30125523,1982,2024,43,1.468,0.046294848,2.599373835,1,0.333179969,4
46,1160460,1,1600,GROOTRIVIER,GROOTRIVIERSPOORT (27691206),ZA,-33.731,24.61794444,29571,133,1964,2024,61,0.819224468,1964,2022,59,2.00286123,1964,2024,61,2.171,0.068464656,2.315263468,1,0.046553821,1
47,1160493,1,1600,SONDAGSRIVIER,DE DRAAY,ZA,-33.09930556,25.0115,13422,-999,1978,2024,47,0.806930106,1978,2022,45,3.773584906,1978,2024,47,0.628,0.019804608,1.475533304,1,0.345351553,2
48,1160510,1,1603,GREAT FISH RIVER,BRANDT LEGTE PIGGOT'S BRIDGE,ZA,-33.09825,26.44475,23067,300,1935,2024,90,0.553134946,1935,2022,88,0.960614793,1935,2024,90,6.279,0.198014544,8.584321498,1,0.088673113,1
49,1160528,1,1603,GREAT FISH RIVER,RIETFONTYN,ZA,-32.08583333,25.57583333,10830,-999,1977,2023,47,0.658165364,1977,2022,46,2.58302583,1977,2023,47,15.989,0.504229104,46.55855069,1,0.003735376,0
50,1160533,1,1603,GREAT FISH RIVER,SOUT VLEIJ,ZA,-33.02763889,25.89330556,19130,-999,1975,2023,49,2.665693922,1975,2022,48,4.929577465,1975,2023,49,6.151,0.193977936,10.1399862,1,0.12284505,0
51,1160580,1,1603,GREAT FISH RIVER,MATOLEMA'S LOCATION OUTSPAN,ZA,-33.23780556,26.99486111,29745,38,1969,2024,56,8.200079952,1969,2022,54,10.53459119,1969,2024,56,10.182,0.321099552,10.79507655,1,0.045995964,1
52,1160684,1,1602,GREAT KEI,AREA 8 SPRINGS B,ZA,-32.51638889,28.01805556,18795,-999,1990,2024,35,0.592821179,1990,2022,33,2.617801047,1990,2024,35,21.432,0.675879552,35.96060399,1,0.178798726,1
53,1160773,1,1600,MZIMVUBU,KU-MAKHOLA,ZA,-30.86013889,29.07125,6906,-999,1984,2023,40,13.96390094,1984,2022,39,17.4392936,1984,2023,40,28.894,0.911201184,131.9434092,1,0.549641067,7
54,1160777,1,1600,MZIMVUBU,NTONTELA,ZA,-31.3955,29.26508333,19273,-999,2009,2024,16,6.310319228,2009,2022,14,7.792207792,2009,2024,16,101.486,3.200462496,166.0593834,1,0.245950381,13
55,1160850,1,1604,BUFFELSRIVIER,TAYSIDE,ZA,-28.05932333,30.37337114,5887,1136,1960,2023,64,7.798046166,1960,2022,63,12.85140562,1960,2023,64,16.342,0.515361312,87.54226465,1,0.47829014,2
56,1160880,1,1604,UTHUKELA,MANDINI (27661102),ZA,-29.1405,31.39258333,28920,38,1959,2023,65,22.9859131,1959,2021,63,28.03738318,1959,2023,65,87.213,2.750349168,95.10197676,1,0.005191534,51
57,1160883,1,1604,UTHUKELA,TUGELA FERRY,ZA,-28.75002778,30.44222222,12862,-999,1927,2023,97,8.848904529,1927,2021,95,10.96491228,1927,2023,97,76.522,2.413197792,187.6222821,1,0.002543485,13
58,1160919,1,1600,MFOLOZI,STATE LAND,ZA,-28.44563889,32.32513889,9099,-999,1993,2019,27,11.2745098,1994,2022,29,15.43026706,1993,2022,30,18.416,0.580766976,63.82756083,1,0.004742055,42
59,1196100,1,1961,OLIFANTSRIVIER,FINALE (27521009),ZA,-24.331111,30.741389,42714,437,1960,2022,63,34.64144926,1960,2022,63,42.64507422,1960,2022,63,24.159,0.761878224,17.83673325,1,0.103012681,42
60,1196105,1,1961,OLIFANTSRIVIER,LOSKOP NOORD,ZA,-24.95861111,29.39527778,16447,-999,2007,2022,16,10.48168862,2007,2022,16,14.36464088,2007,2022,16,6.059,0.191076624,11.61771898,1,0.389053155,3
61,1196106,1,1961,ELANDSRIVIER,SKERP ARABIE,ZA,-24.92647222,29.32338889,6119,-999,1989,2022,34,6.846697133,1989,2022,34,10.37974684,1989,2022,34,0.79,0.02491344,4.071488805,2,0.203078798,1
62,1196220,1,1961,LETABA,ENGELHARDT DAM KRUGER NATIONAL PARK,ZA,-23.83532041,31.63744893,12938,-999,1984,2024,41,11.75426621,1985,2022,38,15.59020045,1984,2024,41,11.015,0.34736904,26.84874324,1,0.283245111,5
63,1196405,1,1961,LIMPOPO RIVER,BOTSWANA,ZA,-22.93476395,28.00392156,98240,768.45,1971,2024,54,3.671572424,1971,2022,52,10.87662338,1971,2024,54,13.42,0.42321312,4.30795114,1,0.286105802,1
64,1196440,1,1961,CROCODILE,VAALKOP,ZA,-25.20631,27.55794,12674,-999,1983,2024,42,9.01563328,1983,2022,40,10.97046414,1983,2024,42,9.419,0.297037584,23.43676692,1,0.289565797,15
65,1196447,1,1961,PIENAARS RIVER,BUFFELSPOORT,ZA,-25.12856,27.62858,7483,-999,1955,2023,69,0.936909405,1955,2022,68,2.621722846,1955,2023,69,4.663,0.147052368,19.65152586,1,0.192263866,3
66,1196450,1,1961,CROCODILE,HAAKDORINGDRIFT,ZA,-24.69508,27.409,22270,920,1987,2024,38,6.103040288,1987,2022,36,11.05769231,1987,2024,38,10.908,0.343994688,15.44655088,1,0.26505482,6
67,1196455,1,1961,CROCODILE,MAKOPPA,ZA,-24.39619,27.08983,28780,-999,2002,2024,23,11.48477157,2002,2022,21,15.25423729,2002,2024,23,12.903,0.406909008,14.13860347,1,0.148650548,4
68,1196540,1,1961,SANDRIVIER,WATERPOORT,ZA,-22.91019232,29.61103918,7712,731.44,2002,2023,22,0.221267734,2002,2021,20,1.282051282,2002,2023,22,0.547,0.017250192,2.236798755,2,0.224484968,0
69,1196551,1,1961,LIMPOPO RIVER,BEITBRUG D/S,ZA,-22.227189,29.99035508,201001,422.38,1992,2024,33,3.671161375,1992,2022,31,5,1992,2024,33,41.829,1.319119344,6.562750155,2,0.212333158,3
70,1196569,1,1961,MAGALAKWENA,LENIESRUS,ZA,-22.55021523,28.89740445,15845,645.89,1995,2024,30,6.218297952,1995,2022,28,8.978328173,1995,2024,30,2.953,0.093125808,5.877299337,1,0.167028895,2
71,1196800,1,1961,OLIFANTSRIVIER,OXFORD,ZA,-24.18473,30.82299,46583,360.06,1966,2023,58,24.03078403,1967,2022,56,30.21148036,1966,2023,58,33.235,1.04809896,22.499602,1,0.283355618,11
72,1196850,1,1961,OLIFANTSRIVIER,MAMBA KRUGER NATIONAL PARK,ZA,-24.06628,31.24288,49826,-999,1987,2022,36,9.286885886,1987,2022,36,14.00966184,1987,2022,36,31.387,0.989820432,19.86554072,1,0.388411122,1
73,1197001,1,1971,RIOINCOMATI,TONGA (27613103),ZA,-25.68225,31.78188889,8864,215,1939,2023,85,3.436370151,1939,2022,84,5.64516129,1939,2023,85,20.672,0.651912192,73.54605054,2,0.27057762,0
74,1197090,1,1971,RIOINCOMATI,KOMATIPOORT,ZA,-25.43661111,31.98244444,21652,-999,1982,2023,42,5.103346125,1982,2021,40,7.249466951,1982,2023,42,29.018,0.915111648,42.26453205,2,0.283001046,0
75,1197300,1,1971,RIOINCOMATI,HOOGGENOEG (27613101),ZA,-26.03616667,30.99761111,5540,746,1909,2023,115,4.65099527,1909,2022,114,7.311669129,1909,2023,115,14.726,0.464399136,83.82655884,2,0.346414906,1
76,1197500,1,1971,KROKODILRIVIER,TENBOSCH (27613216),ZA,-25.36386111,31.95572222,10379,140,1960,2023,64,8.385269122,1960,2021,62,14.01360544,1960,2023,64,18.528,0.584299008,56.29627209,1,0.186141477,3
77,1197501,1,1971,KROKODILRIVIER,KARINO (27613206),ZA,-25.46977778,31.08813889,5131,519,1929,2023,95,0.140105079,1929,2021,93,1.087941976,1929,2023,95,16.328,0.514919808,100.3546693,2,0.330573861,0
78,1197505,1,1971,KROKODILRIVIER,WELTEVREDE,ZA,-25.51419444,31.22452778,5380,-999,1968,2023,56,1.839664972,1968,2021,54,3.98089172,1968,2023,56,13.676,0.431286336,80.16474647,2,0.232676002,1
79,1197507,1,1971,KROKODILRIVIER,RIVERSIDE,ZA,-25.39888889,31.61055556,8473,-999,1985,2023,39,1.499673984,1985,2021,37,4.147465438,1985,2023,39,19.503,0.615046608,72.5890013,2,0.186853568,1
80,1197750,1,1971,RIOSABIE,LOWER SABIE RESTCAMP KRUGER NATIONAL PARK,ZA,-25.14952778,31.94066667,5715,-999,1987,2023,37,8.343274679,1987,2021,35,13.25301205,1987,2023,37,13.812,0.435575232,76.21613858,2,0.368049904,2
81,1199310,1,1991,PONGOLO,M'HLATI,ZA,-27.36325,31.78261111,6846,-999,1968,2023,56,4.444333599,1968,2022,55,7.906976744,1968,2023,56,22.076,0.696188736,101.6927748,1,0.011924909,11
82,1234130,1,1341,SIRBA,GARBE-KOUROU,NE,13.7333,1.6167,38750,287,1956,2022,67,27.92327554,1956,2010,55,54.58715596,1956,2022,67,43.978,1.386890208,35.79071505,1,0.499693003,6
83,1234150,1,1341,RIVER NIGER,NIAMEY,NE,13.52,2.09,700000,174.85,1929,2024,96,9.493488533,1929,2012,84,34.83033932,1929,2024,96,896.579,28.27451534,40.39216478,1,0.158339157,1
84,1237500,1,1371,KOMADUGU YOBE,BAGARA DIFFA,NE,13.28,12.6,115000,298,1976,2021,46,86.27439207,1967,1990,24,0,1967,2021,55,15.28,0.48187008,4.190174609,1,0.554405374,23
85,1255100,1,1551,KUNENE RIVER,RUACANA (64740001),,-17.4,14.2,89600,800,1961,2021,61,0,,,,,1961,2021,61,178.828,5.639519808,62.94106929,1,0.121638894,0
86,1257100,1,1571,OKAVANGO RIVER,RUNDU (64932101),,-17.9,19.75,97300,1060,1945,2021,77,8.537469198,,,,,1945,2021,77,178.444,5.627409984,57.83566273,1,0.750560267,0
87,1257101,1,1571,OKAVANGO RIVER,MUKWE (64932102),,-18.03333333,21.41666667,206000,1100,1949,2020,72,0,,,,,1949,2020,72,312.767,9.863420112,47.88068016,1,0.000104831,1
88,1258500,1,1580,KUISEB,GOBABEB,,-23.5,14.96666667,11700,360,1977,2020,44,1.137162205,,,,,1977,2020,44,0.435,0.01371816,1.172492308,1,0.002104085,0
89,1259080,1,1591,HUDUP,RIETKUIL (64812006),,-25.11666667,17.51666667,5850,1100,1973,2019,47,8.452481077,,,,,1973,2019,47,0.879,0.027720144,4.738486154,1,0.071555545,0
90,1259100,1,1591,FISH,AI-AIS (64812014),,-27.91666667,17.5,63300,243.6,1975,2019,45,1.908682635,,,,,1975,2019,45,7.36,0.23210496,3.666745024,1,0.311372855,0
92,1259102,1,1591,FISH,TSES (64812009),,-25.9,17.96666667,37600,930,1975,2019,45,0.024595708,,,,,1975,2019,45,7.24,0.22832064,6.072357447,1,0.421186217,1
93,1259103,1,1591,FISH,GRASS (64812001),,-24.167,17.35,9170,1210,1970,2020,51,18.94244369,,,,,1970,2020,51,3.929,0.123904944,13.51198953,2,0.188940599,0
94,1259110,1,1591,LOWENRIVIER,ALTDORN (64812011),,-26.8,18.21666667,7000,800,1975,2019,45,5.669202944,,,,,1975,2019,45,2.237,0.070546032,10.07800457,1,0.329184371,1
98,1291100,1,1911,ZAMBEZI RIVER,KATIMA MULILO (64370001),,-17.46666667,24.3,334000,940,1942,2021,80,12.79305052,,,,,1942,2021,80,1214.422,38.29801219,114.6647072,2,0.265133089,1
99,1291200,1,1911,RIOCUANDO,KONGOLA,,-17.68333333,23.26666667,170000,980,1969,2020,52,15.57059961,,,,,1969,2020,52,33.881,1.068471216,6.2851248,1,0.632378907,0
100,1320100,1,1201,MANO RIVER,MANO KONGO,LR,7.328,-11.143,5514,-999,2015,2022,8,0,,,,,2015,2022,8,212.126,6.689605536,1213.203761,2,0.187306753,0
101,1321880,1,1211,LOFA RIVER,LOFA BRIDGE,LR,7.067,-10.88,8194,85,2012,2023,12,0,,,,,2012,2023,12,248.518,7.837263648,956.463711,1,0.006141322,0
102,1322840,1,1221,SAINT PAUL RIVER,PIATTA,LR,7.202586,-9.818731,13734,207,2013,2023,11,1.771336554,,,,,2013,2023,11,347.958,10.97320349,798.980886,1,0.407929583,0
103,1322880,1,1221,SAINT PAUL RIVER,HAINDI,LR,6.90211,-10.36175,18276,130,2012,2023,12,0,,,,,2012,2023,12,470.003,14.82201461,811.0097728,1,0.207497397,0
104,1323550,1,1231,SAINT JOHN RIVER,FRANK DIGGS,LR,6.466,-9.526,10862,170,2013,2021,9,0.13418316,,,,,2013,2021,9,260.777,8.223863472,757.1223966,1,0.327248856,0
105,1323580,1,1231,SAINT JOHN RIVER,MT. FINLAY,LR,6.084,-9.87,15723,65,2013,2022,10,3.903291582,,,,,2013,2022,10,387.607,12.22357435,777.4327006,1,0.129311687,2
106,1324580,1,1241,CESTOS RIVER,ITI,LR,5.617,-9.319,11585,170,2014,2022,9,6.125080593,,,,,2014,2022,9,287.149,9.055530864,781.6599796,1,0.030330595,4
107,1357100,1,1571,OKAVANGO RIVER,MOHEMBO/MTAEMBO (67932112),BW,-18.283333,21.8,410000,1000,1974,2024,51,11.20569744,1933,2000,68,0,1933,2024,92,276.125,8.707878,21.23872683,1,0.412507105,40
110,1616700,1,1160,KONKOURE,PONT DE TELIMELE,GN,10.5,-12.9,10250,154,1954,2020,67,49.40429567,1976,1979,4,4.166666667,1954,2020,67,399.775,12.6073044,1229.980917,1,0.018430217,4
111,1619600,1,1191,MAKONA RIVER,NONGOA,GN,8.5,-10.33,5745,325,1975,2020,46,49.66690891,1976,1979,4,4.166666667,1975,2020,46,83.758,2.641392288,459.7723739,1,0.238227882,0
112,1634500,1,1341,MILO,KANKAN,GN,10.3833,-9.3,9620,361,1938,2020,83,13.72202395,1939,2007,69,50.54545455,1938,2020,83,167.179,5.272156944,548.0412624,1,0.945967898,0
113,1992700,1,1921,SHIRE RIVER,LIWONDE,MW,-15.07,35.2,130200,470,1979,2024,46,0.67679813,1965,1984,20,0,1965,2024,60,299.891,9.457362576,72.63719336,1,0.094035703,0
114,1992790,1,1921,SHIRE RIVER,CHIKWAWA-MITOLE,MW,-16.03,34.81,138600,-999,1979,2024,46,0,1985,1986,2,0,1979,2024,46,536.046,16.90474666,121.9678691,1,0.100693535,0
115,1992850,1,1921,RUO RIVER,M1-ROADBRIDGE (65312109),MW,-16.084722,35.668056,19300,-999,1979,2024,46,3.094813265,,,,,1979,2024,46,17.39,0.54841104,28.41507979,2,0.000444638,0
116,1992900,1,1921,SHIRE RIVER,CHIROMO,MW,-16.55,35.13,149500,-999,1979,2024,46,0,1953,1981,29,0.578034682,1953,2024,72,578.203,18.23420981,121.9679586,2,0.01028902,0
117,1993401,1,1931,SOUTH RUKURU,PHEWZI (65312414),MW,-10.9,34.05,11800,-999,1979,2024,46,5.703562419,,,,,1979,2024,46,34.324,1.082441664,91.73234441,2,0.150036808,0
118,2260100,2,2601,CHINDWIN RIVER,HKAMTI,MM,26,95.7,27420,-999,1978,2023,46,15.21338016,1978,1988,11,0,1978,2023,46,1958.806,61.77290602,2252.841211,2,0.314009718,0
119,2260110,2,2601,CHINDWIN RIVER,MAWLAIK,MM,23.63,94.42,69339,112.59,1996,2023,28,0,,,,,1996,2023,28,3860.278,121.737727,1755.689107,2,0.235248484,0
120,2260120,2,2601,CHINDWIN RIVER,MONYWA,MM,22.1,95.13,110350,73.325,1996,2023,28,0,,,,,1996,2023,28,4367.572,137.7357506,1248.171732,2,0.254737159,0
121,2260400,2,2601,IRRAWADDY RIVER,KATHA,MM,24.17,96.33,77942,94,1996,2023,28,0,,,,,1996,2023,28,4930.941,155.5021554,1995.100913,2,0.318775692,0
122,2260500,2,2601,IRRAWADDY RIVER,SAGAING,MM,21.98,96.1,120193,74,1978,2023,46,15.21338016,1978,1988,11,0,1978,2023,46,6644.267,209.5336041,1743.309545,2,0.269301523,0
123,2260600,2,2601,IRRAWADDY RIVER,MAGWAY,MM,20.13,94.92,335567,52,1996,2023,28,0,,,,,1996,2023,28,11624.005,366.5746217,1092.403668,2,0.279954299,0
124,2260700,2,2601,IRRAWADDY RIVER,PYAY,MM,18.8,95.22,346225,31.268,1996,2023,28,0,,,,,1996,2023,28,11558.19,364.4990798,1052.780937,2,0.26529064,0
125,2261500,2,2611,SITTANG RIVER,TOUNGOO,MM,18.92,96.47,14660,50,1978,2023,46,15.21338016,1978,1988,11,0,1978,2023,46,289.222,9.120904992,622.162687,2,0.162733025,0
137,3103100,3,3031,RIO CAUCA,LA VIRGINIA,CO,4.88,-75.88,22814,-999,1946,2024,79,0.147440848,1946,2024,79,0.105820106,1946,2024,79,550.182,17.35053955,760.5215899,2,0.104402572,0
138,3103450,3,3031,RIO MAGDALENA,PUENTE SANTANDER,CO,2.9,-75.33,15705,-999,1948,2023,76,16.62315057,1948,2023,76,13.90728477,1948,2023,76,490.085,15.45532056,984.101914,2,0.121362419,6
139,3103500,3,3031,RIO MAGDALENA,PUERTO BERRIO,CO,6.5,-74.38,74410,1570,1936,2024,89,0.426189006,1936,2024,89,0.093984962,1936,2024,89,2382.598,75.13761053,1009.778397,2,0.149636537,1
140,3142500,3,3421,RIO PATIA,PTE PUSMEO,CO,1.70625,-77.51041,13147,1975,1966,2021,56,20.68761407,1965,2021,57,20,1965,2021,57,316.85,9.9921816,760.0351107,2,0.119554469,0
141,3179200,3,3790,RIO MAIPO,CABIMBAO,CL,-33.77,-71.53,14823,35,1939,2020,82,47.39488425,1966,1984,19,37.28070175,1939,2020,82,131.307,4.140897552,279.3562404,2,0.741305746,1
142,3179300,3,3790,RIO MAULE,FOREL,CL,-35.4069,-72.2083,19870,30,1985,2020,36,7.094829585,,,,,1985,2020,36,477.92,15.07168512,758.5146009,2,0.438926587,1
143,3179310,3,3790,RIO MAULE,LONGITUDINAL,CL,-35.5575,-71.7067,6072.1,90,1962,2020,59,11.27623208,,,,,1962,2020,59,178.105,5.61671928,925.0044103,2,0.10812372,0
144,3179390,3,3790,RIO MATAQUITO,LICANTEN,CL,-34.9844,-72.01,5685.9,20,1987,2020,34,2.589690722,,,,,1987,2020,34,106.538,3.359782368,590.8971962,2,0.405980854,2
145,3179400,3,3790,RIO ITATA,COELEMU,CL,-36.4669,-72.6911,10402.2,27,1985,2019,35,6.963788301,,,,,1985,2019,35,324.979,10.24853774,985.2279079,2,0.662210329,2
146,3179500,3,3791,RIO BIOBIO,DESEMBOCADURA,CL,-36.83,-73.07,24029,-999,1970,2020,51,15.9422685,1963,1992,30,1.449275362,1963,2020,58,977.401,30.82331794,1282.754918,2,0.655433448,10
147,3179600,3,3790,RIO ACONCAGUA,ROMERAL,CL,-32.8403,-71.0256,5230.4,365,1959,2020,62,46.65284227,,,,,1959,2020,62,24.736,0.780074496,149.1424166,2,0.297614292,0
148,3179800,3,3793,RIO LIMARI,PANAMERICANA,CL,-30.63,-71.57,11343,97,1958,2019,62,12.23370787,1966,1984,19,44.29824561,1958,2019,62,5.658,0.178430688,15.73046707,2,0.032714688,5
149,3179890,3,3790,RIO ELQUI,ALGARROBAL,CL,-29.9953,-70.5867,5669.7,760,1916,2020,105,19.26360585,,,,,1916,2020,105,10.812,0.340967232,60.13849622,2,0.227878687,0
150,3179900,3,3792,RIO HUASCO,ALGODONES,CL,-28.72,-70.52,7187,-999,1975,2019,45,17.08608446,1948,1989,42,0,1948,2019,72,6.487,0.204574032,28.46445415,2,0.013746477,0
151,3179920,3,3792,RIO HUASCO,SANTA JUANA,CL,-28.6719,-70.6464,7383.9,575,1928,2019,92,40.57272809,,,,,1928,2019,92,5.268,0.166131648,22.49917361,2,0.069269792,0
152,3180510,3,3802,RIO COPIAPO,LAUTARO,CL,-27.9747,-69.9978,7568.2,1200,1931,2020,90,17.33885933,,,,,1931,2020,90,1.3,0.0409968,5.416981581,2,0.000800152,9
153,3265005,3,3651,RIO CALCHAQUI,LA PUNILLA,AR,-26.01875,-65.86875,19800,1790,2016,2021,6,0,1948,2021,74,65.98173516,1948,2021,74,0.979,0.030873744,1.55928,2,0.093888845,0
154,3265070,3,3651,RIO PASAJE,EL TUNAL,AR,-25.23,-64.47,38000,425,2008,2021,14,0,1941,2021,81,28.125,1941,2021,81,44.776,1.412055936,37.15936674,2,0.000247919,0
155,3265100,3,3651,RIACHO SALADO,EL ARENAL,AR,-26.22,-63.75,40000,185,2009,2021,13,0,1929,2021,93,29.25724638,1929,2021,93,27.151,0.856233936,21.4058484,2,0.154669519,0
156,3265300,3,3651,RIO PARANA,CORRIENTES,AR,-27.97,-58.85,1950000,60,1904,2021,118,0.039555121,1904,2021,118,0,1904,2021,118,17268.142,544.5681261,279.2657057,2,0.790485272,0
157,3265601,3,3651,RIO PARANA,TIMBUES,AR,-32.67,-60.71,2346000,-999,1905,2021,117,0.584342439,1905,2021,117,0.933908046,1905,2021,117,15700.326,495.1254807,211.0509296,2,0.80826785,3
158,3265910,3,3651,RIO CORRIENTES,PASO LUCERO,AR,-28.97,-58.55,13877,-999,1968,2021,54,13.41268614,1968,2021,54,14.44270016,1968,2021,54,180.442,5.690418912,410.061174,2,0.476354742,1
159,3268270,3,3681,RIO SAN FRANCISCO,CAIMANCITO (PUENTE CARRETERO),AR,-23.73,-64.47,25800,367,1947,2021,75,7.894543855,1946,2021,76,8.008898776,1946,2021,76,106.375,3.354642,130.0248837,2,0.080091478,0
160,3268500,3,3681,RIO PILCOMAYO,LA PAZ,AR,-22.45,-62.37,96000,230,1941,2021,81,22.46901713,1941,2021,81,22.25705329,1941,2021,81,211.199,6.660371664,69.3788715,2,0.01158296,0
161,3268900,3,3681,RIO BERMEJO,EL COLORADO,AR,-26.3,-59.38,65736,78,1968,2020,53,7.13420734,1968,2020,53,4.166666667,1968,2020,53,428.39,13.50970704,205.5145893,2,0.039322186,0
162,3269300,3,3691,MIRINAY RIO,PASO LEDESMA,AR,-29.83,-57.68,10056,-999,1968,2021,54,11.28493951,1968,2020,53,11.9047619,1968,2021,54,143.557,4.527213552,450.2002339,2,0.881384845,5
163,3274030,3,3742,RIO ABAUCAN,TINOGASTA,AR,-28.08,-67.58,14000,1200,1949,2021,73,92.91410692,1919,2021,103,58.49673203,1919,2021,103,1.313,0.041406768,2.957626286,2,0.077519886,0
164,3275010,3,3751,RIO VINCHINA,VINCHINA,AR,-28.75,-68.25,6450,-999,2016,2021,6,0,1966,2021,56,63.63636364,1966,2021,56,0.339,0.010690704,1.657473488,2,0.023790474,0
165,3275140,3,3751,RIO DE LOS PATOS,LA PLATEADA,AR,-31.88,-69.68,8500,1900,1957,2021,65,8.94934976,1909,2021,113,5.208333333,1909,2021,113,39.387,1.242108432,146.1304038,2,0.179282706,0
166,3275210,3,3751,RIO MENDOZA,GUIDO,AR,-32.85,-69.27,8180,1150,1956,2021,66,0.429636494,1956,2021,66,0,1956,2021,66,44.446,1.401649056,171.3507403,2,0.110791442,0
167,3275270,3,3751,RIO DESAGUADERO,ARCO DEL DESAGUADERO,AR,-33.38,-67.17,102120,450,2009,2021,13,13.71206936,1936,2019,84,73.138833,1936,2021,86,0.257,0.008104752,0.079364982,2,0.197094466,0
168,3613060,3,3131,RIO AMAPARI,SIERRA DO NAVIO,BR,0.90056,-52.01,10570,-999,1972,2020,49,1.550343574,1972,1994,23,0,1972,2020,49,359.372,11.33315539,1072.200132,2,0.02313397,3
169,3617110,3,3171,RIO MAMORE,GUAJARA-MIRIM,BR,-10.7925,-65.3478,609000,109.29,1967,2020,54,2.692759695,,,,,1967,2020,54,7863,247.967568,407.1717044,2,0.749125024,0
170,3617805,3,3171,RIO GUAPORE,PEDRAS NEGRAS,BR,-12.8514,-62.8992,110000,152,1980,2020,41,0.041365047,1981,1988,8,2.222222222,1980,2020,41,902.316,28.45543738,258.6857943,2,0.768156788,0
171,3617811,3,3171,RIO GUAPORE,PRINCIPE DA BEIRA,BR,-12.4267,-64.4253,341000,-999,1983,2020,38,0,,,,,1983,2020,38,2412.103,76.06808021,223.073549,2,0.667010451,0
172,3617812,3,3171,RIO GUAPORE,PIMENTEIRAS,BR,-13.4858,-61.05,54200,-999,1983,2020,38,3.719976567,,,,,1983,2020,38,489.949,15.45103166,285.0743849,2,0.915648717,7
173,3617813,3,3171,RIO GUAPORE,MATO GROSSO,BR,-15.0092,-59.9581,22500,200,1976,2020,45,0.06222001,,,,,1976,2020,45,125.852,3.968868672,176.3941632,2,0.833263032,0
174,3618051,3,3181,RIO NEGRO,SERRINHA,BR,-0.4817,-64.8272,279945,-999,1977,2020,44,0.309378021,,,,,1977,2020,44,17667.628,557.1663166,1990.270648,2,0.005993852,0
175,3618052,3,3181,RIO NEGRO,CURICURIARI,BR,-0.2006,-66.8022,194462,-999,1977,2020,44,0.292093989,,,,,1977,2020,44,12849.271,405.2146103,2083.772718,2,0.015413174,0
176,3618053,3,3181,RIO NEGRO,SAO FELIPE,BR,0.3717,-67.3128,110862,-999,1977,2020,44,0,,,,,1977,2020,44,8473.48,267.2196653,2410.381062,2,0.084491655,0
177,3618090,3,3181,RIO NEGRO,CUCUI,BR,1.2153,-66.8525,61781,-999,1980,2020,41,0.214711179,1980,1992,13,0,1980,2020,41,5040.323,158.9516261,2572.823783,2,0.112386247,0
178,3618110,3,3181,RIO ISANA,MISSAO ICANA,BR,1.0744,-67.5947,22282,-999,1980,2019,40,0,,,,,1980,2019,40,1864.448,58.79723213,2638.777135,2,0.10226297,0
179,3618130,3,3181,RIO CURICURIARI,JUSTANTE DA CACHOEIRA DO CAJU,BR,-0.2461,-67.0092,10228,-999,1982,2020,39,0.276182862,,,,,1982,2020,39,944.848,29.79672653,2913.25054,2,0.29967416,0
180,3618150,3,3181,RIO DEMINI,POSTO AJURICABA,BR,0.8842,-62.6219,14756,-999,1982,2019,38,3.402716268,,,,,1982,2019,38,506.8,15.9824448,1083.114991,2,0.861483096,3
181,3618200,3,3181,RIO JAUAPERI,FAZENDA SAO JOSE,BR,0.5178,-60.4661,8639,-999,1983,2019,37,13.23792487,,,,,1983,2019,37,166.802,5.260267872,608.8977743,2,0.817446195,2
182,3618500,3,3181,RIO BRANCO,CARACARAI,BR,1.8214,-61.1236,124980,-999,1967,2020,54,0.794264789,1967,1992,26,7.641196013,1967,2020,54,3008.035,94.86139176,759.0125761,2,0.597777697,0
183,3618600,3,3181,RIO ALALAU,BASE ALALAU,BR,-0.8586,-60.52,6589,59,1977,2019,43,18.82261813,1978,1980,3,0,1977,2019,43,215.328,6.790583808,1030.593991,2,0.650374528,3
184,3618711,3,3181,RIO COTINGO,MALOCA DO CONTAO,BR,4.1675,-60.5281,5815,-999,1975,2019,45,1.178002356,1975,1992,18,1.507537688,1975,2019,45,149.988,4.730021568,813.4172946,2,0.525603132,0
185,3618720,3,3181,RIO URARICOERA,FAZENDA PASSARAO,BR,3.2078,-60.5711,50985,-999,1977,2019,43,1.198144808,,,,,1977,2019,43,1459.894,46.03921718,902.9953356,2,0.873318235,0
186,3618721,3,3181,RIO URARICOERA,FAZENDA CAJUPIRANGA,BR,3.4381,-61.0367,37430,-999,1979,2019,41,0.830270859,,,,,1979,2019,41,1143.882,36.07346275,963.7580217,2,0.880823996,0
187,3618722,3,3181,RIO URARICOERA,UAICAS,BR,3.5497,-63.1692,16065,-999,1984,2019,36,0.03099814,,,,,1984,2019,36,591.554,18.65524694,1161.235415,2,0.142812193,0
188,3618730,3,3181,RIO MUCAJAI,FE E ESPERANCE,BR,2.8708,-61.4406,13658,-999,1973,2020,48,0.900153974,,,,,1973,2020,48,311.043,9.809052048,718.1909539,2,0.764216838,0
189,3618731,3,3181,RIO MUCAJAI,PÃ–STO FUNAI,BR,2.7317,-62.0172,9300,-999,1984,2019,36,29.24594238,,,,,1984,2019,36,275.058,8.674229088,932.7128052,2,0.901213706,0
190,3618740,3,3181,RIO CATRIMANI,MISSAO CATRIMANI,BR,1.75,-62.2833,6182,-999,1984,2019,36,18.95797532,,,,,1984,2019,36,137.34,4.33115424,700.6072857,2,0.460590139,0
191,3618950,3,3181,RIO UAUPES,UARACU,BR,0.4769,-69.1281,40506,-999,1977,2020,44,0.220764885,1978,1992,15,0,1977,2020,44,2473.282,77.99742115,1925.57698,2,0.04691108,0
192,3618951,3,3181,RIO UAUPES,TARAQUA,BR,0.1303,-68.5386,44732,-999,1977,2020,44,0.096184675,,,,,1977,2020,44,2825.912,89.11796083,1992.26417,2,0.139236521,0
193,3620000,3,3201,AMAZON RIVER,SANTO ANTONIO DO ICA,BR,-3.1017,-67.9356,1134540,53,1972,2020,49,4.369318182,,,,,1972,2020,49,57550.959,1814.927043,1599.703001,2,0.188587082,0
194,3621400,3,3211,RIO CAQUETA,VILA BITTENCOURT,BR,-1.3947,-69.4283,197136,-999,1980,2020,41,2.222968435,1980,1993,14,1.27388535,1980,2020,41,13931.837,439.3544116,2228.686854,2,0.027351712,0
195,3623100,3,3231,AMAZON RIVER,SAO PAULO DE OLIVENCA,BR,-3.45,-68.75,990781,71,1973,2020,48,2.567975831,1979,1993,15,0,1973,2020,48,46914.023,1479.480629,1493.246872,2,0.280480974,0
196,3624201,3,3241,RIO JUTAI,COLOCACAO CAXIAS,BR,-5.3831,-68.9983,10257,-999,1982,2020,39,18.28149635,,,,,1982,2020,39,524.466,16.53955978,1612.514359,2,0.100073243,7
197,3624400,3,3241,RIO TEFE,ESTIRAO DA SANTA CRUZ,BR,-4.2922,-65.2017,13708,-999,1981,2020,40,19.52592799,,,,,1981,2020,40,554.398,17.48349533,1275.42277,2,0.507736138,0
198,3624500,3,3241,RIO COARI,SERINGAL MOREIRA,BR,-5.1092,-63.9847,8078,-999,1980,2020,41,14.22840147,,,,,1980,2020,41,283.234,8.932067424,1105.727584,2,0.366499336,0
199,3625000,3,3251,AMAZON RIVER,ITAPEUA,BR,-4.0578,-63.0278,1769000,40,1971,2020,50,2.825904121,,,,,1971,2020,50,87885.833,2771.567629,1566.742583,2,0.31515969,3
200,3626000,3,3261,AMAZON RIVER,MANACAPURU,BR,-3.3106,-60.6094,2147736,-999,1972,2020,49,0.39858786,,,,,1972,2020,49,102438.03,3230.485714,1504.135384,2,0.03462539,1
201,3628300,3,3281,RIO NHAMUNDA,MINERACAO CAIMA,BR,-1.4381,-57.8269,10615,-999,1981,2019,39,44.2838929,,,,,1981,2019,39,295.168,9.308418048,876.9117332,2,0.018880306,0
202,3628701,3,3281,RIO SUCUNDURI,SANTAREM SUCUNDURI,BR,-6.7956,-59.0422,12700,49,1975,2019,45,0.362965241,1973,1984,12,10.07751938,1973,2019,47,453.451,14.30003074,1125.986672,2,0.207658866,0
203,3629001,3,3291,AMAZON RIVER,OBIDOS - LINIGRAFO,BR,-1.9192,-55.5131,4680000,37,1968,2020,53,2.02901598,,,,,1968,2020,53,168384.561,5310.175516,1134.652888,1,0.339161993,0
204,3630100,3,3301,RIO CURUA,BOCA DO INFERNO,BR,-1.50306,-54.87278,20803,-999,1973,2019,47,0.005875095,1973,1994,22,1.53256705,1973,2019,47,168.38,5.31003168,255.2531693,2,0.400360094,0
205,3630300,3,3301,RIO MAICURU,ARAPARI,BR,-1.7789,-54.3972,17072,-999,1972,2020,49,0,1972,1998,27,0,1972,2020,49,143.046,4.511098656,264.239612,2,0.563293475,0
206,3632400,3,3321,RIO JAVARI,ESTIRAO DO REPOUSO,BR,-4.3408,-70.9056,62105,89,1980,2020,41,2.777967374,1980,1993,14,1.342281879,1980,2020,41,2636.123,83.13277493,1338.584251,2,0.538077732,0
207,3632401,3,3321,RIO JAVARI,PALMEIRAS DO JAVARI,BR,-5.1389,-72.8136,16256,142,1982,2020,39,5.094162638,,,,,1982,2020,39,633.853,19.98918821,1229.649865,2,0.346639195,1
208,3632450,3,3321,RIO CURUCA,SANTA MARIA,BR,-4.5794,-71.4131,24351,114,1980,2020,41,37.1921525,,,,,1980,2020,41,975.235,30.75501096,1262.987596,2,0.7757415,0
209,3633120,3,3331,RIO YURUA,GAVIAO,BR,-4.8392,-66.8506,162000,-999,1972,2020,49,6.169402943,1972,1993,22,0,1972,2020,49,4703.792,148.3387845,915.6715093,2,0.234633839,1
210,3633121,3,3331,RIO YURUA,SANTOS DUMONT,BR,-6.4403,-68.2461,142234,-999,1981,2020,40,4.491413474,,,,,1981,2020,40,4194.425,132.2753868,929.9842991,2,0.305820607,0
211,3633122,3,3331,RIO YURUA,EIRUNEPE-MONTANE,BR,-6.6844,-69.8811,77136,-999,1979,2019,41,9.019634122,,,,,1979,2019,41,1774.938,55.97444477,725.6591574,2,0.865467911,1
212,3633123,3,3331,RIO YURUA,IPIXUNA,BR,-7.0556,-71.6892,55806,-999,1981,2019,39,4.733939698,,,,,1981,2019,39,1377.233,43.43241989,778.2750939,2,0.816214062,0
213,3633160,3,3331,RIO YURUA,CRUZEIRO DO SUL,BR,-7.6331,-72.6617,38537,-999,1967,2020,54,6.557547957,1967,1993,27,0,1967,2020,54,933.618,29.44257725,764.0080247,2,0.684154198,0
214,3633180,3,3331,RIO YURUA,TAUMATURGO,BR,-8.9344,-72.7892,16581,-999,1981,2019,39,8.489830629,1981,1993,13,0,1981,2019,39,415.419,13.10065358,790.1003307,2,0.569192745,0
215,3633190,3,3331,RIO YURUA,FOZ DO BREU,BR,-9.4097,-72.7158,10446,-999,1982,2019,38,6.257767381,1982,1992,11,6.349206349,1982,2019,38,173.148,5.460395328,522.7259552,2,0.199440341,1
216,3633301,3,3331,RIO TARAUACA,TARAUCA-JUSANTE,BR,-8.1458,-70.7153,16050,-999,1967,2020,54,20.48029235,,,,,1967,2020,54,627.718,19.79571485,1233.377872,2,0.834198609,0
217,3634100,3,3341,RIO ACRE,BRASILEIA,BR,-10.9997,-68.7617,6712,-999,1982,2020,39,22.94459179,1982,1993,12,0,1982,2020,39,132.672,4.183944192,623.3528296,2,0.011364929,4
218,3634140,3,3341,RIO ACRE,XAPURI,BR,-10.6514,-68.5061,7579.4,-999,1967,2020,54,10.33470649,,,,,1967,2020,54,206.57,6.51439152,859.4864396,2,0.07659807,4
219,3634150,3,3341,RIO ACRE,RIO BRANCO,BR,-9.975,-67.8008,22670,-999,1967,2020,54,3.085561222,1967,1993,27,3.93442623,1967,2020,54,377.414,11.9021279,525.0166698,2,0.8186259,0
220,3634160,3,3341,RIO ACRE,FLORIANO PEIXOTO,BR,-9.0667,-67.3969,33469,-999,1967,2020,54,9.851959967,,,,,1967,2020,54,642.757,20.26998475,605.6346097,2,0.840239879,0
221,3634200,3,3341,RIO PAUINI,FAZENDA BORANGABA,BR,-7.55,-67.55,23365,-999,1984,2020,37,21.53654356,1985,1993,9,14.42307692,1984,2020,37,816.884,25.76125382,1102.557407,2,0.79660786,0
222,3634320,3,3341,RIO PURUS,CANUTAMA,BR,-6.5375,-64.3839,230012,-999,1973,2019,47,1.056317479,,,,,1973,2019,47,6410.493,202.1613072,878.9163489,2,0.783884721,1
223,3634340,3,3341,RIO PURUS,LABREA,BR,-7.2581,-64.7975,226351,60,1931,2019,89,6.414437921,1967,1993,27,0.325732899,1931,2019,89,5246.403,165.450565,730.9469143,2,0.904313697,3
224,3634350,3,3341,RIO PURUS,SERINGAL FORTALEZA,BR,-7.7156,-66.9997,153016,-999,1967,2020,54,0.494946337,,,,,1967,2020,54,3861.449,121.7746557,795.8295581,2,0.461137294,0
225,3634360,3,3341,RIO PURUS,VALPARAISO-MONTANTE,BR,-8.6533,-67.375,103285,-999,1975,2020,46,3.686160199,,,,,1975,2020,46,2067.252,65.19285907,631.193872,2,0.795183856,0
226,3634370,3,3341,RIO PURUS,SERINGAL DA CARIDADE,BR,-9.0439,-68.5772,63166,-999,1967,2019,53,9.620027291,1967,1993,27,3.594771242,1967,2019,53,1329.763,41.93540597,663.8920617,2,0.768203086,2
227,3634380,3,3341,RIO PURUS,MANOEL URBANO,BR,-8.8842,-69.2681,33693,-999,1981,2019,39,34.39252336,1981,1993,13,14.89361702,1981,2019,39,778.839,24.5614667,728.978325,2,0.869310263,8
229,3634450,3,3341,RIO CAETE,SERINGAL GUARANY,BR,-9.1103,-68.9933,6025,-999,1983,2020,38,22.77790072,,,,,1983,2020,38,134.095,4.22881992,701.8788249,2,0.681348203,0
230,3634500,3,3341,RIO MUCUIM,CRISTO,BR,-7.4647,-64.2433,6482,-999,1975,2019,45,27.89195176,1975,1989,15,4.761904762,1975,2019,45,257.262,8.113014432,1251.622097,2,0.859349697,0
231,3635030,3,3351,RIO MADERA,MANICORE,BR,-5.8167,-61.3019,1150000,-999,1967,2020,54,0.995409768,1967,1993,27,11.875,1967,2020,54,23840.189,751.8242003,653.7601742,2,0.837772375,0
232,3635035,3,3351,RIO MADERA,HUMAITA,BR,-7.5028,-63.0183,1090000,-999,1967,2020,54,0.907582201,,,,,1967,2020,54,22057.054,695.5912549,638.1571146,2,0.870401316,0
233,3635040,3,3351,RIO MADERA,PORTO VELHO,BR,-8.7483,-63.9169,976000,42.5,1967,2020,54,1.03402608,1970,1985,16,0,1967,2020,54,18859.81,594.7629682,609.388287,2,0.879963072,1
234,3635041,3,3351,RIO MADERA,ABUNA,BR,-9.7031,-65.3647,921000,74.65,1976,2020,45,17.14285714,,,,,1976,2020,45,18666.187,588.6568732,639.1496995,2,0.884448477,15
235,3635060,3,3351,RIO ABUNA,MORADA NOVA-JUSANTE,BR,-9.7847,-65.5275,31000,-999,1988,2020,33,2.595066804,,,,,1988,2020,33,631.382,19.91126275,642.2987985,2,0.77816684,0
236,3635301,3,3351,RIO JAMARI,ARIQUEMES,BR,-9.9256,-63.0714,8110,87.67,1970,2020,51,4.462374444,,,,,1970,2020,51,180.021,5.677142256,700.0175408,2,0.881174812,6
237,3635310,3,3351,RIO CANDEIAS,SANTA ISABEL,BR,-8.7986,-63.7106,12600,-999,1976,2020,45,1.440392277,,,,,1976,2020,45,349.058,11.00789309,873.6423086,2,0.534892538,0
238,3635402,3,3351,RIO JI-PARANA,TABAJARA,BR,-8.9322,-62.0556,60300,68.15,1977,2020,44,5.313223606,1978,1988,11,4.761904762,1977,2020,44,1439.947,45.41016859,753.0707893,2,0.671812499,3
239,3635408,3,3351,RIO JI-PARANA,JIPARANA (RONDONIA),BR,-10.8736,-61.9356,32800,129.6,1977,2020,44,3.698604418,1978,1991,14,17.28395062,1977,2020,44,731.211,23.0594701,703.0326249,2,0.641728501,0
240,3635410,3,3351,RIO JI-PARANA,SITIO BELA VISTA,BR,-11.6525,-61.215,16100,-999,1984,2020,37,17.78290993,1985,1988,4,40.54054054,1984,2020,37,375.481,11.84116882,735.476324,2,0.423643606,16
241,3635440,3,3351,RIO APIDIA,PIMENTA BUENO,BR,-11.6836,-61.1922,10100,-999,1980,2019,40,4.268334593,,,,,1980,2019,40,230.245,7.26100632,718.9115168,2,0.191063811,0
242,3635600,3,3351,RIO ARIPUANA,HUMBOLDT,BR,-10.1675,-59.4644,15200,181,1979,2019,41,4.663494222,1979,1984,6,32.30769231,1979,2019,41,297.172,9.371616192,616.5536968,2,0.004693554,0
243,3635650,3,3351,RIO ARIPUANA,PRAINHA VELHA,BR,-7.2078,-60.65,131000,107,1974,2019,46,0.524475524,1974,1984,11,0,1974,2019,46,3320.262,104.7077824,799.2960491,2,0.693551904,2
244,3635651,3,3351,RIO ARIPUANA,BOCA DO GUARIBA,BR,-7.7067,-60.5867,70100,60,1977,2019,43,0.281045752,,,,,1977,2019,43,1432.718,45.18219485,644.5391562,2,0.429527706,0
245,3635660,3,3351,RIO GUARIBE,LEONTINO,BR,-7.7394,-60.5761,16300,-999,1984,2019,36,12.88966993,,,,,1984,2019,36,439.101,13.84748914,849.5392108,2,0.016887034,0
246,3636201,3,3361,RIO TROMBETAS,CARAMUJO,BR,-1.065,-57.0614,50650,-999,1986,2020,35,19.01753278,,,,,1986,2020,35,1887.731,59.53148482,1175.350144,2,0.008156523,0
247,3636202,3,3361,RIO TROMBETAS,GARGANTA,BR,-0.9978,-57.0431,37910,-999,1986,2020,35,25.91243765,,,,,1986,2020,35,1454.704,45.87554534,1210.11726,2,0.238667204,17
248,3637180,3,3371,RIO TAPAJOS,BARRA DO SAO MANUEL-JUSANTE,BR,-7.3397,-58.1553,333000,-999,1975,2019,45,7.589006871,1975,1994,20,17.82608696,1975,2019,45,8477.169,267.3360016,802.8108156,2,0.856620411,0
249,3637380,3,3371,RIO JURUENA,FONTANILHAS,BR,-11.3583,-58.3428,55900,247,1978,2020,43,2.856957761,1978,1995,18,0,1978,2020,43,1435.223,45.26119253,809.6814406,2,0.038266151,0
250,3637771,3,3371,RIO SAO MANOEL,JUSANTE FOZ PEIXOTO DE AZEVEDO,BR,-9.6425,-56.0183,81600,233,1980,2020,41,11.68536233,,,,,1980,2020,41,2067.231,65.19219682,798.9239806,2,0.401072879,0
251,3637772,3,3371,RIO SAO MANOEL,INDECO,BR,-10.1125,-55.57,52200,245,1975,2019,45,4.649713288,,,,,1975,2019,45,1183.392,37.31945011,714.9319945,2,0.46840472,0
252,3637773,3,3371,RIO SAO MANOEL,CACHOEIRAO,BR,-11.6458,-55.7017,34600,317,1975,2019,45,6.772707189,,,,,1975,2019,45,821.305,25.90067448,748.5744069,2,0.511011418,0
253,3637774,3,3371,RIO SAO MANOEL,TELES PIRES,BR,-12.6742,-55.7917,13900,323,1976,2020,45,10.81265933,,,,,1976,2020,45,342.664,10.8062519,777.4281945,2,0.328880837,0
254,3637775,3,3371,RIO SAO MANOEL,PORTO RONCARDO,BR,-13.5564,-55.3317,10800,358,1973,2020,48,2.61954993,,,,,1973,2020,48,259.327,8.178136272,757.23484,2,0.276087873,3
255,3637790,3,3371,RIO SAO MANOEL,TRES MARIAS,BR,-7.6147,-57.9503,138000,129,1975,2019,45,7.544101088,1975,1995,21,35.04273504,1975,2019,45,3779.96,119.2048186,863.803033,2,0.322189357,0
256,3637900,3,3371,RIO DO SANGUE,FAZENDA TOMBADOR,BR,-11.7644,-58.0364,24700,256,1984,2020,37,6.080147398,1984,1995,12,0,1984,2020,37,524.24,16.53243264,669.3292567,2,0.019033291,2
257,3637910,3,3371,RIO ARINOS,PORTO DOS GAUCHOS,BR,-11.5364,-57.4228,37100,237,1973,2020,48,1.262329732,,,,,1973,2020,48,737.983,23.27303189,627.3054417,2,0.050702351,0
258,3638010,3,3381,RIO BACAJA,FAZENDA CIPAUBA,BR,-3.7314,-51.5675,24575,-999,1977,2019,43,39.7342758,,,,,1977,2019,43,320.085,10.09420056,410.7507858,2,0.453986874,0
259,3638050,3,3381,RIO XINGU,ALTAMIRA,BR,-3.2147,-52.2122,446203,-999,1968,2020,53,9.364319891,1971,1998,28,3.416149068,1968,2020,53,8043.404,253.6567885,568.4784471,2,0.658067399,17
260,3638051,3,3381,RIO XINGU,BOA SORTE,BR,-6.7358,-51.9953,206863,-999,1977,2020,44,7.2541166,,,,,1977,2020,44,3616.051,114.0357843,551.262354,2,0.230863279,6
261,3638120,3,3381,RIO IRIRI,PEDRA DO O,BR,-4.5278,-54.0125,123827,-999,1976,2020,45,26.68590427,1976,1995,20,13.39285714,1976,2020,45,2563.308,80.83648109,652.8178918,2,0.081339566,14
263,3638200,3,3381,RIO FRESCO,BOA ESPERANCA,BR,-6.7453,-51.7736,43030,-999,1975,2020,46,15.29273425,,,,,1975,2020,46,888.741,28.02733618,651.3440896,2,0.063986437,11
264,3638210,3,3381,RIO CURUA,CAJUEIRO,BR,-5.65,-54.5208,35213,-999,1975,2019,45,9.630598642,1975,1998,24,10.11235955,1975,2019,45,832.037,26.23911883,745.1543132,2,0.35971477,2
265,3649150,3,3491,RIO PARANA,NOVA ROMA (FAZ. SUCURI),BR,-13.7625,-46.8375,22834,-999,1970,2020,51,2.582883577,,,,,1970,2020,51,185.943,5.863898448,256.8055727,2,0.270877846,3
266,3649151,3,3491,RIO PARANA,FLORES DE GOIAS,BR,-14.4508,-47.0472,7277,-999,1975,2020,46,3.653273357,,,,,1975,2020,46,59.837,1.887019632,259.3128531,2,0.195913834,0
267,3649210,3,3491,RIO SANTA TERESA,COLONHA,BR,-12.3878,-48.7106,8690,259,1974,2020,47,8.539352681,1974,1984,11,15.12605042,1974,2020,47,103.368,3.259813248,375.122353,2,0.309477245,1
268,3649211,3,3491,RIO SANTA TERESA,JACINTO,BR,-11.9825,-48.6575,13811,237,1971,2020,50,6.28346013,1971,1991,21,12.5,1971,2020,50,153.545,4.84219512,350.6042372,2,0.074523086,3
269,3649240,3,3491,RIO MANUEL ALVES DA NATIVIDADE,FAZENDA LOBEIRA,BR,-11.5314,-48.2947,14475,243,1969,2020,52,2.710697574,1969,1992,24,11.0701107,1969,2020,52,179.966,5.675407776,392.0834388,2,0.098877019,0
270,3649251,3,3491,RIO TOCANTINS,PEIXE,BR,-12.0231,-48.5328,130052,235,1970,2020,51,1.137493098,,,,,1970,2020,51,1578.63,49.78367568,382.7982321,2,0.271157351,0
271,3649310,3,3491,RIO MANUEL ALVES GRANDE,GOIATINS,BR,-7.7078,-47.3117,9636,189,1971,2020,50,2.303446722,1971,1984,14,11.9205298,1971,2020,50,153.948,4.854904128,503.8298182,2,0.073569902,0
272,3649315,3,3491,"VERMELHO, RIO",JACARE,BR,-7.9633,-47.2611,5069,198,1984,2019,36,0.007668712,,,,,1984,2019,36,76.169,2.402065584,473.8736603,2,0.069288877,0
273,3649320,3,3491,RIO DO SONO,PORTO REAL,BR,-9.3069,-47.9292,44910,200,1969,2019,51,0.431505353,,,,,1969,2019,51,709.02,22.35965472,497.8769699,2,0.278887379,0
274,3649321,3,3491,RIO DO SONO,NOVO ACORDO,BR,-9.9633,-47.6747,18500,180,1971,2020,50,1.212155381,,,,,1971,2020,50,297.66,9.38700576,507.4057168,2,0.26763064,6
275,3649322,3,3491,RIO DO SONO,JATOBA (FAZENDA BOA NOVA),BR,-9.9953,-47.4725,13855,200,1973,2020,48,1.070825816,,,,,1973,2020,48,285.261,8.995990896,649.2956258,2,0.318581323,6
276,3649409,3,3491,RIO ARAGUAIA,SAO FELIX DO ARAGUAIA,BR,-11.6181,-50.6625,193923,226,1973,2020,48,0.24829657,,,,,1973,2020,48,2604.855,82.14670728,423.6047673,2,0.91277913,0
277,3649411,3,3491,RIO ARAGUAIA,TORIXOREU,BR,-16.2006,-52.5497,19100,314,1971,2020,50,1.82040182,,,,,1971,2020,50,342.316,10.79527738,565.1977684,2,0.529399927,6
278,3649412,3,3491,RIO ARAGUAIA,ARAGUAIANA,BR,-15.7381,-51.8281,50930,278,1974,2020,47,0.153094271,1974,1986,13,2.054794521,1974,2020,47,849.619,26.79358478,526.086487,2,0.466132741,0
279,3649416,3,3491,RIO ARAGUAIA,CONCEICAO DO ARAGUAIA,BR,-8.2694,-49.2594,320290,141,1969,2020,52,0.058482641,1969,1987,19,0,1969,2020,52,4739.667,149.4701385,466.671262,2,0.771426876,0
280,3649418,3,3491,RIO ARAGUAIA,XAMBIOA,BR,-6.4097,-48.5422,364500,118,1969,2019,51,0.016132502,1969,1987,19,4.245283019,1969,2019,51,5386.047,169.8543782,465.9928071,2,0.828636924,0
281,3649419,3,3491,RIO ARAGUAIA,ARAGUATINS,BR,-5.6344,-48.1297,376660,98,1974,2020,47,0.437300555,1974,1987,14,9.74025974,1974,2020,47,5915.523,186.5519333,495.2793855,2,0.115937666,1
282,3649421,3,3491,RIO ARAGUAIA,ARUANA,BR,-14.9019,-51.0819,76964,237,1969,2020,52,0.481341266,,,,,1969,2020,52,1178.94,37.17905184,483.0706803,2,0.613011965,0
283,3649422,3,3491,RIO ARAGUAIA,BARRA DO GARCAS,BR,-15.8914,-52.2278,36800,-999,1970,2020,51,1.257861635,,,,,1970,2020,51,636.255,20.06493768,545.2428717,2,0.445957287,0
284,3649424,3,3491,RIO ARAGUAIA,BANDEIRANTES,BR,-13.6897,-50.8,92638,276,1974,2020,47,0.924453866,,,,,1974,2020,47,1347.463,42.49359317,458.7058569,2,0.750806022,2
285,3649449,3,3491,RIO CLARO,MONTES CLAROS DE GOIAS,BR,-15.5722,-51.6344,9045,-999,1971,2019,49,0.588697017,1971,1987,17,10.3626943,1971,2019,49,128.323,4.046794128,447.4067582,2,0.555847321,0
286,3649450,3,3491,RIO CAIAPO,SAO FERREIRA,BR,-16.3025,-51.4692,6471,-999,1974,2019,46,0,1974,1987,14,0,1974,2019,46,110.359,3.480281424,537.8274492,2,0.36220336,0
287,3649459,3,3491,RIO CAIAPO,PERES,BR,-15.8897,-51.8528,12084,-999,1971,2019,49,8.086482806,1971,1987,17,4.663212435,1971,2019,49,202.883,6.398118288,529.4702324,2,0.876378996,5
288,3649460,3,3491,RIO JAVAES,BARREIRA DA CRUZ,BR,-10.5647,-49.9342,40327,220,1969,2019,51,11.99352576,,,,,1969,2019,51,682.56,21.52521216,533.7667607,2,0.653935942,0
289,3649510,3,3491,RIO VERMELHO,TRAVESSAO,BR,-15.5189,-50.7047,5370,-999,1974,2020,47,0.671259495,1974,1987,14,4.320987654,1974,2020,47,76.554,2.414206944,449.5729877,2,0.587911985,0
290,3649614,3,3491,RIO DAS MORTES,TORIQUEJE,BR,-15.2486,-53.0553,17160,339,1967,2019,53,0.660746379,1968,1986,19,3.947368421,1967,2019,53,361.502,11.40032707,664.3547245,2,0.827043763,0
291,3649617,3,3491,RIO DAS MORTES,XAVANTINA,BR,-14.6725,-52.355,24950,266,1969,2020,52,0.329629433,,,,,1969,2020,52,496.399,15.65443886,627.4324194,2,0.509806062,0
292,3649618,3,3491,RIO DAS MORTES,TRECHO MEDO,BR,-14.0867,-51.6964,44320,232,1980,2020,41,0.88741363,,,,,1980,2020,41,711.412,22.43508883,506.206878,2,0.627140366,1
293,3649619,3,3491,RIO DAS MORTES,SANTO ANTONIO DO LEVERGER,BR,-12.2919,-50.9636,59163,205,1969,2020,52,0.175728207,1969,1986,18,11.11111111,1969,2020,52,874.359,27.57378542,466.0646929,2,0.946839751,1
294,3649640,3,3491,RIO CRIXAS-ACU,JUSANTE DO RIO PINTADO,BR,-13.5614,-50.4011,18600,-999,1980,2019,40,11.99659671,,,,,1980,2019,40,187.809,5.922744624,318.4271303,2,0.749088503,3
295,3649901,3,3491,RIO TOCANTINS,MARABA,BR,-5.3386,-49.1244,690920,69.77,1971,2020,50,0.346989031,,,,,1971,2020,50,10194.186,321.4838497,465.2982251,2,0.70635316,1
296,3649902,3,3491,RIO TOCANTINS,DESCARRETO,BR,-5.7894,-47.4689,298559,114,1973,2019,47,0.12277112,,,,,1973,2019,47,4396.288,138.6413384,464.3683103,2,0.395230548,0
297,3649905,3,3491,RIO TOCANTINS,TUPIRATINS,BR,-8.3917,-48.1114,243841,125,1969,2020,52,0.839883708,,,,,1969,2020,52,3213.447,101.3392646,415.5956734,2,0.715489235,0
298,3649960,3,3491,RIO ITACAIUNAS,FAZENDA ALEGRIA,BR,-5.4867,-49.2214,37600,-999,1969,2020,52,7.256551798,,,,,1969,2020,52,567.884,17.90878982,476.2976017,2,0.666507044,8
299,3650150,3,3502,RIO CAPIM,BADAJOS,BR,-2.51278,-47.76806,38178,-999,1971,2019,49,0.168871376,1971,1999,29,8.163265306,1971,2019,49,601.212,18.95982163,496.6164187,2,0.66932408,0
300,3650202,3,3503,RIO GURUPI,ALTO BONITO,BR,-1.8006,-46.3161,31850,-999,1972,2020,49,1.023852385,1972,1986,15,3.571428571,1972,2020,49,475.946,15.00943306,471.2537851,2,0.853544301,1
301,3650205,3,3503,RIO GURUPI,FAZENDA RURAL ZEBU,BR,-3.3411,-46.8769,14240,-999,1980,2019,40,16.05042609,1981,1985,5,9.259259259,1980,2019,40,120.352,3.795420672,266.5323506,2,0.436416958,0
302,3650280,3,3509,RIO PINDARE,VALE DO PINDARE,BR,-4.69583,-46.93333,5600,140,1979,2020,42,7.919029408,1981,1992,12,6.106870229,1979,2020,42,23.508,0.741348288,132.3836229,2,0.637745936,0
303,3650310,3,3509,RIO ZUTIUA,ESPERANTINA,BR,-4.03222,-45.77667,6800,50,1972,2020,49,9.134018291,1978,1980,3,0,1972,2020,49,20.352,0.641820672,94.38539294,2,0.706771327,3
304,3650335,3,3506,RIO MEARIM,BACABAL,BR,-4.21944,-44.76528,27650,9,1975,2020,46,0.060175713,1975,1992,18,0.502512563,1975,2020,46,101.265,3.19349304,115.4970358,2,0.59238554,0
305,3650350,3,3504,RIO ITAPECURU,MIRADOR,BR,-6.3692,-44.3561,6800,140,1968,2020,53,10.18077024,1968,1989,22,4.4,1968,2020,53,17.648,0.556547328,81.84519529,2,0.249890954,4
306,3650385,3,3500,RIO MUNIM,NINA RODRIGUES,BR,-3.45944,-43.89889,12450,5,1963,2020,58,7.422473201,1963,1992,30,34.79532164,1963,2020,58,104.528,3.296395008,264.7706834,2,0.811735958,4
307,3650415,3,3508,RIO DAS BALSAS,BALSAS,BR,-7.5344,-46.0358,8800,235,1965,2020,56,8.459760876,1965,1993,29,0.59347181,1965,2020,56,100.853,3.180500208,361.4204782,2,0.430160362,11
308,3650455,3,3508,RIO PIAUI,SAO FRANCISCO DO PIAUI,BR,-7.2331,-42.5444,35000,150,1981,2020,40,10.9393832,1985,1993,9,0,1981,2020,40,4.544,0.143299584,4.094273829,2,0.577520036,10
309,3650460,3,3508,RIO ITAIM,SANTA CRUZ DO PIAUI II,BR,-7.1894,-41.7703,17400,-999,1963,2020,58,46.02877698,1963,1992,30,0.563380282,1963,2020,58,8.97,0.28287792,16.25735172,2,0.392124429,14
310,3650470,3,3508,RIO POTI,FAZENDA CANTINHO II,BR,-5.2025,-42.6967,50000,80,1963,2019,57,23.11516156,1963,1990,28,0.303951368,1963,2019,57,110.013,3.469369968,69.38739936,2,0.110988806,0
311,3650475,3,3508,RIO LONGA,ESPERANTINA,BR,-3.9028,-42.2297,11000,50,1963,2019,57,0.834757139,1963,1992,30,0.283286119,1963,2019,57,87.325,2.7538812,250.3528364,2,0.511151353,0
312,3650477,3,3508,RIO LONGA,TINGUIS,BR,-3.7239,-41.9742,24100,50,1965,2020,56,8.322644302,1964,1992,29,0.588235294,1964,2020,57,140.512,4.431186432,183.8666569,2,0.597417946,13
313,3650481,3,3508,RIO PARNAIBA,LUZILANDIA,BR,-3.45389,-42.37,322823,26,1982,2019,38,0,1982,1993,12,2.877697842,1982,2019,38,660.841,20.84028178,64.5563723,2,0.52670504,0
314,3650610,3,3505,RIO JAGUARIBE,ARNEIROZ,BR,-6.3244,-40.1617,5960,325,1910,2020,111,2.608093743,1910,1981,72,16.3507109,1910,2020,111,6.533,0.206024688,34.56790067,2,0.002257534,1
315,3650630,3,3505,RIO BANABUIU,SENADOR POMPEU,BR,-5.595,-39.3811,5200,173,1912,2020,109,9.619596687,1912,1992,81,23.14814815,1912,2020,109,20.978,0.661562208,127.2235015,2,0.057011333,1
316,3650634,3,3505,RIO BANABUIU,MORADA NOVA II,BR,-5.1219,-38.4464,17900,50,1973,2020,48,1.628440367,1961,1992,32,2.879581152,1961,2020,60,23.459,0.739803024,41.32977788,2,0.047962426,1
317,3650649,3,3505,RIO JAGUARIBE,PEIXE GORDO,BR,-5.2275,-38.1978,48200,50,1961,2020,60,0.701095175,1961,1984,24,9.964412811,1961,2020,60,86.935,2.74158216,56.87929793,2,0.028572805,1
318,3650710,3,3500,RIO APODI,PEDRA DE ABELHAS (BREJO APODI),BR,-5.5933,-37.6842,6480,70,1911,2020,110,46.51093067,1964,1991,28,0,1911,2020,110,11.801,0.372156336,57.43153333,2,0.19966753,14
319,3650745,3,3505,RIO SALGADO,ICO,BR,-6.4067,-38.8672,12000,160,1957,2020,64,0.674282769,1957,1992,36,4.861111111,1957,2020,64,24.681,0.778340016,64.861668,2,0.549272641,1
320,3650750,3,3500,RIO PIRANHAS,JARDIM DE PIRANHAS,BR,-6.3781,-37.3525,21350,115,1962,2020,59,6.958919475,1962,1986,25,0,1962,2020,59,55.886,1.762420896,82.5489881,2,0.264260061,15
321,3650881,3,3507,RIO PARAIBA,CARAUBAS,BR,-7.7283,-36.5025,5120,493,1970,2020,51,7.424530868,1973,1985,13,0,1970,2020,51,5.845,0.18432792,36.00154688,2,0.021887008,3
322,3651400,3,3511,RIO PARACATU,PONTE DA PARACATU - BR-040,BR,-17.5025,-46.5711,7760,520,1965,2020,56,0.143266476,1965,1975,11,0,1965,2020,56,87.253,2.751610608,354.5889959,2,0.252311428,0
323,3651678,3,3511,RIO GRANDE,BOQUEIRAO,BR,-11.35528,-43.84556,46300,401,1933,2020,88,0.450563993,1933,1985,53,6.4,1933,2020,88,263.827,8.320048272,179.6986668,2,0.532924097,2
324,3651806,3,3511,RIO SAO FRANCISCO,BOM JESUS DA LAPA,BR,-13.25694,-43.43917,271000,420,1940,2020,81,0.706967213,1978,1985,8,0,1940,2020,81,2027.246,63.93122986,235.9085973,2,0.401628455,0
325,3651807,3,3511,RIO SAO FRANCISCO,MORPARA,BR,-11.55833,-43.2825,345000,399,1945,2020,76,18.63953062,1945,1984,40,7.659574468,1945,2020,76,2540.396,80.11392826,232.2142848,2,0.244685905,2
326,3652030,3,3526,RIO ITAPICURU,QUEIMADAS,BR,-10.97333,-39.63278,11825,265,1934,2020,87,2.073244073,1934,1984,51,8.745874587,1934,2020,87,14.359,0.452825424,38.29390478,2,0.351122854,0
327,3652039,3,3526,RIO ITAPICURU,USINA ALTAMIRA,BR,-11.73472,-37.80333,35150,17,1964,2019,56,17.89648925,1964,1979,16,11.53846154,1964,2019,56,25.629,0.808236144,22.9939159,2,0.037650219,1
328,3652050,3,3529,RIO VASA BARRIS,FAZENDA BELEM,BR,-10.94306,-37.34694,15740,19,1944,2020,77,0.893567759,1971,1985,15,2.298850575,1944,2020,77,12.741,0.401800176,25.52733011,2,0.190208889,1
329,3652210,3,3524,RIO GAVIAO,ANAGE,BR,-14.6125,-41.13806,6980,358,1968,2019,52,9.150746508,1968,1980,13,58.33333333,1968,2019,52,6.277,0.197951472,28.35980974,2,0.35987559,0
330,3652660,3,3525,RIO MANHUACU,SAO SEBASTIAO DA ENCRUZILHADA,BR,-19.4925,-41.16167,8810,-999,1938,2020,83,6.858155554,1978,1980,3,0,1938,2020,83,100.405,3.16637208,359.4065925,2,0.082450096,20
331,3652870,3,3523,RIO POMBA,CATAGUASES,BR,-21.3894,-42.6964,5858,169,1930,2020,91,0.094714329,1934,1992,59,15.35150646,1930,2020,91,97.056,3.060758016,522.4919795,2,0.05347161,1
332,3652880,3,3523,RIO PARAIBA DO SUL,SAO FIDELIS,BR,-21.64528,-41.75222,46731,-999,1973,2020,48,0.533256881,1974,1992,19,3.636363636,1973,2020,48,591.681,18.65925202,399.2906639,2,0.006555324,3
333,3652890,3,3523,RIO PARAIBA DO SUL,CAMPOS - PONTE MUNICIPAL,BR,-21.7533,-41.3003,55500,14,1922,2020,99,1.027291812,1928,1999,72,0.925925926,1922,2020,99,807.382,25.46159875,458.7675451,2,0.384527097,12
334,3653120,3,3532,RIO RIBEIRA DE IGUAPE,IPORANGA (PCD),BR,-24.5858,-48.5917,12450,73,1941,2020,80,0.003498828,1938,1975,38,0,1938,2020,83,205.012,6.465258432,519.297866,2,0.002156791,0
335,3653352,3,3530,RIO ITAJAI,BLUMENAU,BR,-26.9181,-49.0653,11803,12,1939,2020,82,0.026959628,1939,1989,51,3.294892916,1939,2020,82,377.127,11.89307707,1007.63171,2,0.070748213,0
336,3662300,3,3621,RIO ANHANDUI,DELFINO COSTA,BR,-21.6144,-53.0511,13590,323,1976,2020,45,2.823152315,1976,1985,10,6.25,1976,2020,45,170.903,5.389597008,396.5855046,2,0.272483986,0
337,3662400,3,3621,RIO PIQUIRI,BALSA SANTA MARIA,BR,-24.16611,-53.73583,20982,270,1969,2019,51,0.075159714,1969,1995,27,1.587301587,1969,2019,51,526.713,16.61042117,791.6509946,2,0.390225746,0
338,3662650,3,3621,RIO IVAI,NOVO PORTO TAQUARA,BR,-23.19806,-53.30417,34432,240,1974,2019,46,0.3571216,1974,1991,18,4.784688995,1974,2019,46,725.659,22.88438222,664.6254131,2,0.356853758,0
339,3662655,3,3621,RIO IVAI,PORTO PARAISO DO NORTE,BR,-23.32306,-52.66444,28427,250,1953,2019,67,0.053124106,1953,1995,43,1.169590643,1953,2019,67,566.039,17.8506059,627.945471,2,0.219482104,0
340,3663800,3,3631,RIO DAS CINZAS,ANDIRA,BR,-23.08306,-50.28306,5622,375,1931,2019,89,4.503645369,1931,1991,61,1.790633609,1931,2019,89,65.964,2.080240704,370.0179125,2,0.14008974,0
341,3664160,3,3641,RIO IGUAZU,SALTO CATARATAS,BR,-25.68306,-54.43306,67317,152,1942,2019,78,1.010916494,1942,1995,54,2.65625,1942,2019,78,1673.573,52.77779813,784.0188679,2,0.567841177,0
342,3666050,3,3661,RIO PARAGUAI,CACERES (DNPVN),BR,-16.0758,-57.7022,32774,262,1965,2020,56,0,1966,1993,28,2.976190476,1965,2020,56,536.537,16.92023083,516.2699345,2,0.53462897,0
343,3666200,3,3661,RIO PIQUIRI,SAO JERONIMO,BR,-17.2017,-56.0086,17150,112,1967,2019,53,9.242384796,1968,1978,11,0,1967,2019,53,251.723,7.938336528,462.8767655,2,0.742684715,0
344,3666400,3,3661,RIO CUIABA,PORTO DO ALEGRE,BR,-17.6233,-56.965,102750,91,1967,2019,53,7.399114814,1967,1978,12,0,1967,2019,53,688.598,21.71562653,211.3442971,2,0.940751651,0
345,3666500,3,3661,RIO POGUBA XOREU,ACIMA DO CORREGO GRANDE,BR,-16.6081,-55.2064,21800,139,1969,2019,51,7.803296406,1969,1978,10,12.26415094,1969,2019,51,347.345,10.95387192,502.471189,2,0.731254105,0
346,3666600,3,3661,RIO MIRANDA,MIRANDA,BR,-20.2408,-56.3961,15460,108,1965,2019,55,5.498597297,1965,1978,14,0,1965,2019,55,99.312,3.131903232,202.5810629,2,0.210214405,0
347,3666700,3,3661,RIO TAQUARI-MIRIM,COXIM,BR,-18.5078,-54.7619,27040,190,1966,2020,55,3.603694544,1966,1978,13,0,1966,2020,55,358.054,11.29159094,417.5884225,2,0.115110837,0
348,3667060,3,3671,RIO PARAGUAI,PORTO MURTINHO (FB/DNOS),BR,-21.7003,-57.8911,474500,70.75,1939,2020,82,1.854844139,1965,1984,20,0.431034483,1939,2020,82,2336.308,73.67780909,155.274624,2,0.53830569,0
349,3667400,3,3671,RIO APA,SAO CARLOS,BR,-22.2236,-57.3039,11100,109.7,1971,2020,50,6.524064171,1971,1978,8,0,1971,2020,50,84.884,2.676901824,241.1623265,2,0.600522839,0
350,3669600,3,3691,RIO IBICUI,PASSO MARIANO PINTO,BR,-29.3092,-56.0547,42498,60,1944,2020,77,0.433971738,1955,1982,28,3.273809524,1944,2020,77,793.6,25.0269696,588.8975858,2,0.363662163,0
351,3669630,3,3691,RIO IBIRAPUITA,ALEGRETE,BR,-29.7686,-55.7872,5942,66.18,1940,2020,81,0.452535226,1978,1980,3,11.11111111,1940,2020,81,116.891,3.686274576,620.3760646,2,0.537979374,2
352,4118320,4,4180,AMARGOSA RIVER,"TECOPA, CA",US,35.8486,-116.23,8003.1,399.29,1961,2023,63,26.39737798,1961,2000,40,39.74358974,1961,2023,63,0.077,0.002428272,0.303416426,1,0.029724053,0
353,4123095,4,4231,DUCK RIVER,"ABOVE HURRICANE MILLS, TENN",US,35.9301,-87.7431,6622.6,112.94,1925,2023,99,5.211291131,,,,,1925,2023,99,117.488,3.705101568,559.4632875,2,0.135217943,1
354,4123277,4,4231,NEW RIVER,"ALLISONIA, VA",US,36.9376,-80.7456,5703.2,563.38,1929,2022,94,0,,,,,1929,2022,94,92.135,2.90556936,509.4629962,2,0.220853488,1
355,4125027,4,4251,NEOSHO RIVER,"NEAR COMMERCE, OK",US,36.9287,-94.9575,15218.8,228.29,1939,2023,85,0,1939,2000,62,0.273224044,1939,2023,85,110.084,3.471609024,228.1131905,2,0.517092457,1
356,4125028,4,4251,NEOSHO RIVER,"NEAR CHOUTEAU, OK",US,36.2295,-95.1827,29873.1,168.86,1937,2022,86,15.29419342,1937,2000,64,20.63492063,1937,2022,86,261.533,8.247704688,276.091356,2,0.586663676,1
357,4125050,4,4251,VERDIGRIS RIVER,"NEAR CLAREMORE, OK",US,36.3073,-95.698,16923.1,164.17,1935,2023,89,0,,,,,1935,2023,89,121.127,3.819861072,225.7187555,2,0.591233049,1
358,4125061,4,4251,CIMARRON RIVER,"NEAR RIPLEY, OK",US,35.9859,-96.9123,46565.6,242.58,1987,2023,37,0,,,,,1987,2023,37,51.952,1.638358272,35.18387548,1,0.404981971,1
359,4125062,4,4251,CIMARRON RIVER,"NEAR DOVER, OK",US,35.9517,-97.9145,40696.7,304.55,1973,2023,51,0,,,,,1973,2023,51,21.442,0.676194912,16.6154728,2,0.348213435,1
360,4125063,4,4251,CIMARRON RIVER,"NEAR WAYNOKA, OK",US,36.5173,-98.8795,34535.1,416.77,1937,2023,87,0,,,,,1937,2023,87,7.391,0.233082576,6.749150169,2,0.389536512,1
361,4125500,4,4251,ARKANSAS RIVER,"TULSA, OK",US,36.1406,-96.0064,193252.9,187.52,1925,2023,99,0,1965,1984,20,5.833333333,1925,2023,99,217.218,6.850186848,35.44674801,2,0.032027016,0
362,4125550,4,4251,CANADIAN RIVER,"NEAR WHITEFIELD, OK",US,35.264,-95.2394,123221.8,144.22,1938,2023,86,0,1965,1984,20,5,1938,2023,86,170.895,5.38934472,43.736942,1,0.275558269,1
363,4125551,4,4251,CANADIAN RIVER,"NEAR CANADIAN, TX",US,35.935,-100.3707,59222.9,701.5,1938,2023,86,0,,,,,1938,2023,86,6.214,0.195964704,3.308934618,2,0.082066678,1
364,4125552,4,4251,CANADIAN RIVER,"NEAR TAYLAOR SPRINGS, NM",US,36.297,-104.4939,7381.5,1717.55,1939,2023,85,6.801024092,,,,,1939,2023,85,1.81,0.05708016,7.732867303,2,0.25753854,0
365,4125555,4,4251,NORTH CANADIAN RIVER,"NEAR WETUMKA, OK",US,35.2656,-96.2061,37011.1,206.74,1937,2023,87,0,,,,,1937,2023,87,23.719,0.748002384,20.21021758,2,0.44254295,1
366,4125560,4,4251,BEAVER RIVER,"BEAVER, OK",US,36.8222,-100.5193,20603.5,721.82,1937,2023,87,0,,,,,1937,2023,87,1.546,0.048754656,2.366328828,1,0.070573517,1
367,4125565,4,4251,DEEP FORK,"NEAR BEGGS, OK",US,35.674,-96.0686,5226.6,192.8,1938,2023,86,0,,,,,1938,2023,86,26.572,0.837974592,160.3288164,2,0.4097201,1
368,4125804,4,4251,ARKANSAS RIVER,"MURRAY DAM NEAR LITTLE ROCK, AR",US,34.7909,-92.359,409297.7,68.16,1927,2022,96,0,,,,,1927,2022,96,1274.148,40.18153133,98.17189622,2,0.18343455,0
369,4125900,4,4252,WHITE RIVER,"DEVALLS BLUFF, AR",US,34.7904,-91.446,60686.3,46.61,1949,2023,75,24.34808303,1965,1970,6,1.449275362,1949,2023,75,798.461,25.1802661,414.9250506,2,0.507576973,1
370,4125901,4,4252,WHITE RIVER,"NEWPORT, AR",US,35.6051,-91.2887,51437.4,59.16,1927,2023,97,6.246617484,,,,,1927,2023,97,662.651,20.89736194,406.2678506,2,0.527683436,1
372,4125910,4,4252,CURRENT RIVER,"DONIPHAN, MO",US,36.622,-90.8476,5278.4,97.91,1921,2023,103,0,,,,,1921,2023,103,81.815,2.58011784,488.8068051,2,0.352435001,1
373,4125940,4,4252,BLACK RIVER,"ELGIN FERRY, AR",US,35.7642,-91.2946,21802.6,-999,1999,2023,25,0.011422045,,,,,1999,2023,25,310.317,9.786156912,448.8527475,2,0.545287652,1
374,4125941,4,4252,BLACK RIVER,"BLACK ROCK, AR",US,36.1042,-91.0973,19085.7,69.97,1929,2023,95,8.50277802,,,,,1929,2023,95,257.344,8.115600384,425.2189013,2,0.502769948,1
375,4126100,4,4261,LITTLE RIVER,"NEAR HORATIO, AR",US,33.9196,-94.3877,6894.6,83.18,1931,2023,93,0,1931,2000,70,1.438848921,1931,2023,93,113.656,3.584255616,519.8641859,2,0.11735013,1
376,4126300,4,4261,MUDDY BOGGY CREEK,"NEAR UNGER, OK",US,34.0268,-95.7502,5887.1,119.7,1982,2023,42,0,,,,,1982,2023,42,54.148,1.707611328,290.0598475,2,0.270441418,1
377,4126351,4,4261,WICHITA RIVER,"NEAR MABELLE, TX",US,33.7601,-99.1428,5402.7,323.92,1959,2023,65,0,,,,,1959,2023,65,3.737,0.117850032,21.81317341,2,0.227131198,1
378,4126701,4,4261,OUACHITA RIVER,"CAMDEN, AR",US,33.5965,-92.8182,13874.6,21.85,1928,2023,96,1.306700437,1928,2000,73,0,1928,2023,96,228.72,7.21291392,519.864639,2,0.380840838,1
379,4126750,4,4261,SALINE RIVER,"NEAR RYE, ARK",US,33.7009,-92.026,5444.2,29.58,1937,2022,86,0.003214194,1937,2000,64,0,1937,2022,86,76.166,2.401970976,441.1981514,2,0.527078707,1
380,4126801,4,4261,RED RIVER,"INDEX, AR",US,33.5521,-94.0413,124397.7,75.25,1936,2023,88,0.012580594,,,,,1936,2023,88,367.544,11.59086758,93.17589943,2,0.365306011,1
381,4126802,4,4261,RED RIVER,"ARTHUR CITY, TX",US,33.8751,-95.5019,115335.3,115.85,1905,2023,119,21.18056361,,,,,1905,2023,119,256.836,8.099580096,70.22637558,2,0.488307365,1
382,4126803,4,4261,RED RIVER,"NEAR BURKBURNETT, TX",US,34.1101,-98.5317,53276.3,290.34,1924,2023,100,35.49197064,1960,2000,41,0,1924,2023,100,31.222,0.984616992,18.48133207,2,0.324989149,0
383,4126804,4,4261,RED RIVER,"DENISON DAM NEAR DENISON, TX",US,33.819,-96.5633,102874.8,150.88,1924,2023,100,7.684499314,,,,,1924,2023,100,139.359,4.394825424,42.72013578,2,0.381868308,1
384,4126805,4,4261,RED RIVER,"NEAR GAINESVILLE, TX",US,33.7279,-97.16,79725.4,191.39,1936,2023,88,0,,,,,1936,2023,88,87.954,2.773717344,34.79088652,2,0.383058184,1
385,4126810,4,4261,NORTH FORK RED RIVER,"NEAR HEADRICK, OK",US,34.6345,-99.0967,10992,394.66,1905,2023,119,24.8943003,1905,2000,96,31.58813264,1905,2023,119,8.987,0.283414032,25.78366376,1,0.488948835,0
386,4126851,4,4261,PEASE RIVER,"NEAR VERNON, TX",US,34.1793,-99.2781,9033.9,355.41,1959,2023,65,14.83403379,,,,,1959,2023,65,2.592,0.081741312,9.048286122,2,0.454706061,1
387,4127310,4,4271,TALLAHATCHIE RIVER,"MONEY, MS",US,33.6514,-90.2108,13522.4,30.17,1995,2023,29,0.195560771,,,,,1995,2023,29,225.725,7.1184636,526.4201325,2,0.585214231,0
388,4127700,4,4271,BIG BLACK RIVER,"NEAR BOVINA, MS",US,32.3475,-90.6967,7283.1,25.89,1936,2024,89,0,,,,,1936,2024,89,108.567,3.423768912,470.0977485,2,0.467806528,0
389,4127800,4,4271,MISSISSIPPI RIVER,"VICKSBURG, MS",US,32.315,-90.9058,2964255,14.09,1931,2022,92,1.269669344,1928,1983,56,63.22869955,1928,2022,95,17833.136,562.3857769,189.7224688,1,0.744109244,0
390,4146400,4,4465,SALINAS RIVER,"NEAR SPRECKELS, CA",US,36.6311,-121.6724,10764,6.27,1929,2022,94,0,,,,,1929,2022,94,10.635,0.33538536,31.1580602,1,0.187995412,1
391,4148090,4,4484,ROANOKE RIVER,"ROANOKE RAPIDS, N.C.",US,36.4605,-77.6345,21714.6,13.36,1912,2023,112,0.004895362,1965,1984,20,0,1912,2023,112,230.155,7.25816808,334.2529027,2,0.143133694,1
392,4148091,4,4484,ROANOKE RIVER,"RANDOLPH, VA",US,36.9151,-78.7408,7710.4,93.75,1901,2023,123,34.40218854,,,,,1901,2023,123,85.259,2.688727824,348.7144408,2,0.142533643,1
393,4148110,4,4480,TAR RIVER,"TARBORO, N.C.",US,35.8944,-77.5331,5654,2.84,1896,2023,128,24.30438357,,,,,1896,2023,128,62.03,1.95617808,345.9812664,2,0.071791643,1
394,4148120,4,4480,NEUSE RIVER,"NEAR FORT BARNWELL, NC",US,35.3127,-77.3052,10101,-999,1996,2022,27,0.021050416,,,,,1996,2022,27,120.617,3.803777712,376.5743701,2,0.44856184,1
395,4148121,4,4480,NEUSE RIVER,"KINSTON, NC",US,35.2582,-77.5855,6972.3,3.32,1930,2023,94,0,,,,,1930,2023,94,80.082,2.525465952,362.2141836,2,0.473304045,1
396,4148230,4,4482,CAPE FEAR RIVER,"LILLINGTON, N.C.",US,35.4063,-78.8131,8971.8,31.89,1924,2023,100,0,1965,1984,20,0,1924,2023,100,93.237,2.940322032,327.7293332,2,0.22725465,0
397,4148231,4,4482,CAPE FEAR RIVER,"WILM NEAR TARHEEL, NC",US,34.8349,-78.8239,12566.7,8.83,1937,2023,87,0,,,,,1937,2023,87,136.66,4.30970976,342.9468166,2,0.007213334,1
398,4148232,4,4482,CAPE FEAR RIVER,"LOCK #1 NEAR KELLY, NC",US,34.4043,-78.2936,13610.5,-0.88,1969,2023,55,0.010059856,,,,,1969,2023,55,151.439,4.775780304,350.8894092,2,0.030693951,1
399,4148300,4,4483,PEE DEE RIVER,"PEEDEE, S.C.",US,34.2043,-79.5484,22869.7,7.54,1938,2023,86,0.009663392,1938,1984,47,0,1938,2023,86,269.367,8.494757712,371.4415892,2,0.467902807,0
400,4148310,4,4483,LITTLE PEE DEE RIVER,"GALIVANTS FERRY, S.C.",US,34.0571,-79.247,7226.1,7.3,1942,2023,82,0.632233893,,,,,1942,2023,82,84.07,2.65123152,366.8965998,2,0.536029155,1
401,4148321,4,4483,YADKIN RIVER,"YADKIN COLLEGE, NC",US,35.8567,-80.3869,5905,194.6,1928,2023,96,0.017380221,,,,,1928,2023,96,85.173,2.686015728,454.8714188,2,0.02832528,1
402,4148410,4,4486,BROAD RIVER,"NEAR CARLISLE, S.C.",US,34.5962,-81.422,7226.1,88.63,1938,2023,86,0,,,,,1938,2023,86,106.074,3.345149664,462.9260132,2,0.230350891,1
403,4148530,4,4486,CONGAREE RIVER,"COLUMBIA, SC",US,33.9932,-81.0498,20331.5,34.45,1939,2023,85,0.006504488,,,,,1939,2023,85,242.845,7.65835992,376.6746143,2,0.149307596,1
404,4148535,4,4486,SALUDA RIVER,"NEAR COLUMBIA, SC",US,34.014,-81.0879,6526.8,45.56,1925,2022,98,0.005634755,,,,,1925,2022,98,75.861,2.392352496,366.5429454,2,0.09043823,1
405,4148541,4,4486,WATEREE RIVER,"NEAR CAMDEN, SC",US,34.2446,-80.654,13131.3,36.08,1929,2024,96,1.022423609,,,,,1929,2024,96,165.011,5.203786896,396.288783,2,0.005627098,1
406,4148545,4,4486,CATAWBA RIVER,"BELOW CATAWBA, SC",US,34.8363,-80.8795,9168.6,134.72,1992,2024,33,3.133293382,,,,,1992,2024,33,122.641,3.867606576,421.8317492,2,0.029030717,1
407,4148546,4,4486,CATAWBA RIVER,"NEAR ROCKHILL, SC",US,34.9849,-80.974,7899.5,148.08,1895,2024,130,30.91619349,,,,,1895,2024,130,117.242,3.697343712,468.0478147,2,0.02832676,1
408,4148570,4,4480,EDISTO RIVER,"NEAR GIVHANS, SC",US,33.0279,-80.3915,7070.7,6.24,1939,2023,85,0,,,,,1939,2023,85,68.673,2.165671728,306.288165,2,0.779375897,1
409,4148610,4,4480,OGEECHEE RIVER,"NEAR EDEN, GA.",US,32.1916,-81.4159,6863.5,5.99,1937,2024,88,0,,,,,1937,2024,88,61.661,1.944541296,283.3162812,2,0.772390433,1
410,4148650,4,4487,SAVANNAH RIVER,"NEAR CLYO, GA.",US,32.5282,-81.2687,25511.5,4.08,1929,2024,96,4.276134351,1929,1984,56,7.272727273,1929,2024,96,317.113,10.00047557,391.9987287,2,0.35100457,0
411,4148720,4,4481,ALTAMAHA RIVER,"DOCTORTOWN, GA.",US,31.6547,-81.8279,35224,7.46,1931,2022,92,0.003004627,1931,1984,54,0,1931,2022,92,372.324,11.74160966,333.3411783,2,0.783909033,1
412,4148750,4,4480,SATILLA RIVER,"ATKINSON, GA.",US,31.2213,-81.8673,7226.1,4.51,1930,2023,94,0,,,,,1930,2023,94,61.186,1.929561696,267.0267082,2,0.752630695,0
413,4148855,4,4485,OCKLAWAHA RIVER,"RODMAN DAM NEAR ORANGE SPRINGS, FL",US,29.5086,-81.804,7114.7,-999,1968,2022,55,0,,,,,1968,2022,55,35.657,1.124479152,158.0501148,1,0.016554032,0
414,4149120,4,4493,PEARL RIVER,"NEAR BOGALUSA, LA.",US,30.7932,-89.8209,17024.1,16.76,1938,2024,87,0.012827914,,,,,1938,2024,87,286.978,9.050138208,531.6074393,2,0.803796885,1
415,4149121,4,4493,PEARL RIVER,"NEAR MONTICELLO, MS",US,31.5536,-90.0878,12931.9,48.36,1938,2023,86,3.110140085,,,,,1938,2023,86,192.208,6.061471488,468.7224219,2,0.736128843,13
416,4149122,4,4493,PEARL RIVER,"JACKSON, MS",US,32.2814,-90.1789,8212.9,71.23,1901,2023,123,13.93446297,,,,,1901,2023,123,117.058,3.691541088,449.4808275,2,0.453019287,0
417,4149300,4,4490,PASCAGOULA RIVER,"MERRILL, MISS.",US,30.9778,-88.7244,17068.1,8,1930,2023,94,0,,,,,1930,2023,94,284.136,8.960512896,524.9859619,2,0.630981511,1
418,4149350,4,4490,CHICKASAWHAY RIVER,"LEAKESVILLE, MS",US,31.1483,-88.5644,6967.1,15.58,1938,2023,86,0.02568878,,,,,1938,2023,86,112.598,3.550890528,509.6655033,2,0.598692717,1
419,4149360,4,4490,LEAF RIVER,"NEAR MCLAIN,MS",US,31.1028,-88.8058,9052,12.85,1939,2023,85,0.065019506,,,,,1939,2023,85,153.913,4.853800368,536.2130323,2,0.536027172,1
420,4149401,4,4491,ALABAMA RIVER,CLAIRBORNE L+D NEAR MONROEVILLE,US,31.6115,-87.553,55615.1,-999,1975,2021,47,0.249970242,,,,,1975,2021,47,859.712,27.11187763,487.4913042,2,0.615705696,1
421,4149410,4,4491,TOMBIGBEE RIVER,"DEMOPOLIS L+D NEAR COATOPA, AL.",US,32.5196,-87.8783,39847.2,17.07,1928,2019,92,0.027022158,,,,,1928,2019,92,673.314,21.2336303,532.8763452,2,0.622987266,1
422,4149413,4,4491,TOMBIGBEE RIVER,"COFFEEVILLE L+D NEAR COFFEEVILLE, AL",US,31.7585,-88.1292,47700,-999,1960,2021,62,0.031418312,,,,,1960,2021,62,841.031,26.52275362,556.0325706,2,0.573099032,0
423,4149420,4,4490,ESCAMBIA RIVER,"NEAR CENTURY, FLA.",US,30.9652,-87.2341,9886,8.64,1934,2022,89,0,1965,1984,20,0,1934,2022,89,171.663,5.413564368,547.5990662,2,0.381019216,1
424,4149421,4,4490,ESCAMBIA RIVER,"NEAR MOLINO, FLA",US,30.6682,-87.2666,10740.7,-999,1983,2020,38,13.06101496,,,,,1983,2020,38,174.906,5.515835616,513.5452639,2,0.551649708,1
425,4149441,4,4491,COOSA RIVER,"NEAR ROME, GA",US,34.2004,-85.2566,10463.6,168.57,1896,2023,128,26.26514842,,,,,1896,2023,128,186.05,5.8672728,560.7317558,2,0.10911494,1
426,4149630,4,4492,APALACHICOLA RIVER,"CHATTAHOOCHEE, FLA.",US,30.701,-84.8591,44548,12,1922,2021,100,0,1928,1984,57,0,1922,2021,100,608.726,19.19678314,430.9235686,2,0.435480984,1
427,4149631,4,4492,APALACHICOLA RIVER,"NEAR BLOUNTSTOWN, FLA",US,30.4252,-85.0313,45584,8.22,1957,2021,65,0.025602731,,,,,1957,2021,65,619.288,19.52986637,428.4368719,2,0.497273178,0
428,4149632,4,4492,APALACHICOLA RIVER,"NEAR SUMATRA, FLA",US,29.9494,-85.0155,49728,-999,1977,2021,45,0.024837007,,,,,1977,2021,45,647.489,20.4192131,410.6180241,2,0.389497976,1
429,4149670,4,4492,CHATTAHOOCHEE RIVER,"WEST POINT, GA",US,32.8862,-85.1822,9194.5,168.15,1896,2023,128,0.002151694,,,,,1896,2023,128,155.805,4.91346648,534.3919169,2,0.094728186,0
430,4149680,4,4492,FLINT RIVER,"BAINBRIDGE, GA",US,30.9116,-84.5799,19606.3,17.7,1907,2023,117,38.37280619,,,,,1907,2023,117,233.637,7.367976432,375.7963732,2,0.702685311,0
431,4149690,4,4490,CHOCTAWHATCHEE RIVER,"NEAR BRUCE, FLA",US,30.451,-85.8983,11354.6,-999,1930,2022,93,1.267664173,,,,,1930,2022,93,196.317,6.191052912,545.2462361,2,0.506225558,0
432,4149691,4,4490,CHOCTAWHATCHEE RIVER,"CARYVILLE, FLA",US,30.7757,-85.8277,9062.4,11.89,1929,2021,93,1.865238733,,,,,1929,2021,93,151.664,4.782875904,527.7714407,2,0.238381886,1
433,4149711,4,4490,OCHLOCKONEE RIVER,"NEAR SMITH CREEK, FLA",US,30.1766,-84.668,5387.2,-999,1996,2021,26,0,,,,,1996,2021,26,55.303,1.744035408,323.7368963,2,0.301826053,1
434,4149780,4,4494,SUWANNEE RIVER,"BRANFORD, FLA.",US,29.9558,-82.9276,20409.2,1.47,1931,2023,93,0,1965,1984,20,0,1931,2023,93,191.635,6.04340136,296.1116242,2,0.524453238,0
435,4149781,4,4494,SUWANNEE RIVER,"NEAR BELL, FLA",US,29.7913,-82.9243,24320.1,1.09,1932,2023,92,47.72338959,,,,,1932,2023,92,231.104,7.288095744,299.6737573,2,0.482383864,1
436,4149851,4,4490,WITHLACOOCHEE RIVER,"INGLIS DAM NEAR DUNNELLON, FLA",US,29.01,-82.6168,5231.8,-999,1969,2022,54,0.103289779,,,,,1969,2022,54,10.537,0.332294832,63.5144371,2,0.036691917,1
437,4150280,4,4503,NUECES RIVER,"NEAR MATHIS, TEX.",US,28.0383,-97.8603,43149.4,8.09,1939,2023,85,0,1965,1984,20,0,1939,2023,85,18.106,0.570990816,13.23287962,2,0.179110628,1
438,4150281,4,4503,NUECES RIVER,"NEAR THREE RIVERS, TX",US,28.4275,-98.1781,39956,30.25,1915,2023,109,0,,,,,1915,2023,109,20.129,0.634788144,15.8871795,2,0.23394193,1
439,4150282,4,4503,NUECES RIVER,"NEAR TILDEN, TX",US,28.3089,-98.5572,20960.9,55.93,1942,2024,83,0.145020404,,,,,1942,2024,83,10.11,0.31882896,15.21065221,2,0.195993229,1
440,4150283,4,4503,NUECES RIVER,"CALALLEN, TX",US,27.8831,-97.6253,43822.8,0.26,1989,2023,35,0.30539259,,,,,1989,2023,35,9.247,0.291613392,6.654376078,2,0.203679929,0
441,4150310,4,4505,GUADALUPE RIVER,"VICTORIA, TX",US,28.793,-97.013,13462.8,8.89,1934,2023,90,0,,,,,1934,2023,90,53.958,1.701619488,126.3941742,2,0.229066965,1
442,4150330,4,4505,SAN ANTONIO RIVER,"GOLIARD, TX",US,28.6497,-97.3847,10155.4,27.76,1924,2023,100,10.05698868,,,,,1924,2023,100,21.772,0.686601792,67.60952715,2,0.105836827,1
443,4150331,4,4505,SAN ANTONIO RIVER,"NEAR FALLS CITY, TX",US,28.9516,-98.0642,5472.7,87.02,1925,2023,99,0,,,,,1925,2023,99,13.983,0.440967888,80.57592925,2,0.232785252,0
444,4150450,4,4502,COLORADO RIVER,"WHARTON, TEX.",US,29.3091,-96.1038,108788,15.98,1938,2023,86,0,,,,,1938,2023,86,74.131,2.337795216,21.48945854,1,0.609766642,1
445,4150451,4,4502,COLORADO RIVER,"AUSTIN, TX",US,30.2447,-97.6944,101033.3,122.61,1898,2023,126,0.002179266,,,,,1898,2023,126,58.12,1.83287232,18.14126946,2,0.517995762,1
446,4150460,4,4502,LLANO RIVER,"LLANO, TX",US,30.7513,-98.6698,10870.2,295.66,1939,2023,85,0.042254437,,,,,1939,2023,85,10.08,0.31788288,29.24351714,2,0.014159024,1
447,4150461,4,4502,LLANO RIVER,"NEAR MASON, TX",US,30.6607,-99.1092,8409.7,375.01,1968,2024,57,7.863406986,,,,,1968,2024,57,8.024,0.253044864,30.0896422,2,0.292454902,0
448,4150465,4,4502,SAN SABA RIVER,"SAN SABA, TX",US,31.2132,-98.7195,7889.1,354.23,1915,2023,109,3.697610852,,,,,1915,2023,109,5.694,0.179565984,22.76127619,2,0.449792386,1
449,4150471,4,4502,MIDDLE CONCHO RIVER,"ABOVE TANKERSLEY,TX",US,31.4274,-100.7112,5397.6,605.48,1961,2023,63,8.883484413,,,,,1961,2023,63,0.338,0.010659168,1.974797688,2,0.317070396,0
450,4150475,4,4502,CONCHO RIVER,"PAINT ROCK, TX",US,31.516,-99.9195,17026.7,479.87,1915,2024,110,0,,,,,1915,2024,110,3.471,0.109461456,6.42881216,2,0.377037379,1
451,4150500,4,4501,BRAZOS RIVER,"RICHMOND, TEX.",US,29.5825,-95.7577,116827.1,8.52,1903,2023,121,13.45574068,,,,,1903,2023,121,215.322,6.790394592,58.12345416,2,0.603602396,1
452,4150501,4,4501,BRAZOS RIVER,"NEAR AQUILLA,TX",US,31.8124,-97.2978,70562,123.23,1938,2023,86,0.003213677,,,,,1938,2023,86,43.18,1.36172448,19.29826932,1,0.530662631,1
453,4150502,4,4501,BRAZOS RIVER,"NEAR SOUTH BEND,TX",US,33.0243,-98.6439,58723,305.71,1938,2023,86,4.703042009,,,,,1938,2023,86,20.512,0.646866432,11.01555493,2,0.45147125,1
454,4150503,4,4501,BRAZOS RIVER,"SEYMOUR,TX",US,33.5809,-99.2676,40243.4,377.64,1923,2023,101,0,,,,,1923,2023,101,8.982,0.283256352,7.038579047,2,0.466690565,1
455,4150505,4,4501,CLEAR FORK BRAZOS RIVER,FORT GRIFFIN,US,32.9346,-99.2245,10328.9,357.84,1924,2023,100,0,,,,,1924,2023,100,6.071,0.191455056,18.53586113,2,0.669025835,1
456,4150507,4,4501,SALT FORK BRAZOS RIVER,"NEAR ASPERMONT, TX",US,33.334,-100.2382,13286.7,484.24,1924,2023,100,13.88094976,,,,,1924,2023,100,2.311,0.072879696,5.485161553,1,0.333031886,1
457,4150509,4,4501,DOUBLE MOUNTAIN FORK BRAZOS RIVER,"NEAR ASPERMONT,TX",US,33.0082,-100.1806,22781.6,495.24,1924,2020,97,4.89919241,,,,,1924,2020,97,3.736,0.117818496,5.171651508,2,0.341986385,1
458,4150585,4,4503,FRIO RIVER,"NEAR DERBY, TX",US,28.7366,-99.1448,8881,136.89,1915,2023,109,3.69836331,,,,,1915,2023,109,3.58,0.11289888,12.71240626,2,0.166866544,0
459,4150600,4,4506,TRINITY RIVER,"ROMAYOR, TEX.",US,30.4252,-94.8508,44511.7,7.9,1924,2023,100,0,,,,,1924,2023,100,230.026,7.254099936,162.9706332,2,0.552653951,1
460,4150601,4,4506,TRINITY RIVER,"LIBERTY, TX",US,30.0577,-94.8183,45242.1,-0.68,1940,2023,84,60.54100472,,,,,1940,2023,84,333.057,10.50328555,232.1573391,2,0.651685602,1
461,4150605,4,4506,ELM FORK TRINITY RIVER,"NEAR CARROLLTON, TX",US,32.966,-96.9444,6368.8,131.49,1907,2023,117,0,,,,,1907,2023,117,24.801,0.782124336,122.8056048,2,0.351860883,0
462,4150680,4,4504,NECHES RIVER,"EVADALE, TEX.",US,30.3558,-94.0932,20593,2.52,1904,2023,120,11.95607223,1965,1984,20,0.416666667,1904,2023,120,178.037,5.614574832,272.6448226,2,0.350330958,0
463,4150681,4,4504,NECHES RIVER,"NEAR ROCKLAND, TX",US,31.025,-94.3994,9417.2,26.95,1903,2023,121,0,,,,,1903,2023,121,68.051,2.146056336,227.886881,2,0.587299059,1
464,4150700,4,4504,SABINE RIVER,"NEAR RULIFF, TEX.",US,30.3038,-93.7438,24162.1,-1.8,1924,2023,100,0,,,,,1924,2023,100,234.353,7.390556208,305.8739186,2,0.125685051,1
465,4151511,4,4511,PECOS RIVER,"NEAR LAKE ARTHUR, NM",US,32.9884,-104.3227,38228.4,1014.09,1938,2024,87,0,,,,,1938,2024,87,5.726,0.180575136,4.723586025,2,0.002188331,1
466,4151513,4,4511,PECOS RIVER,"BELOW SUMNER DAM, NM",US,34.6042,-104.3878,11370.1,1262.69,1912,2024,113,2.927933469,1912,2000,89,3.693181818,1912,2024,113,5.456,0.172060416,15.13270912,1,0.03829965,1
467,4151514,4,4511,PECOS RIVER,"NEAR PUERTO DE LUNA, NM",US,34.7301,-104.525,10282.3,1314.1,1938,2024,87,0,1938,2000,63,0,1938,2024,87,5.413,0.170704368,16.60176886,1,0.020956355,0
468,4151515,4,4511,PECOS RIVER,NEAR GIRVIN,US,31.1131,-102.4172,76560.4,691.79,1939,2023,85,0,,,,,1939,2023,85,1.664,0.052475904,0.685418362,2,0.303730601,1
469,4151600,4,4511,RIO PUERCO,"NEAR BERNARDO, NM",US,34.4092,-106.8531,19036.5,1439.37,1939,2022,84,0,,,,,1939,2022,84,1.048,0.033049728,1.736124182,1,0.110071791,1
470,4151610,4,4511,RIO SAN JOSE,"NEAR GRANTS, NM",US,35.0742,-107.7509,5957,1910.93,1936,2020,85,9.793260622,,,,,1936,2020,85,0.168,0.005298048,0.889381904,1,0.050123124,1
471,4151650,4,4511,RIO CHAMA,"NEAR CHAMITA, NM",US,36.0739,-106.1117,8143,1723.22,1912,2020,109,7.208919296,,,,,1912,2020,109,15.063,0.475026768,58.3355972,1,0.47213759,1
472,4151802,4,4511,RIO BRAVO,"OTOWI BRIDGE, NM",US,35.8747,-106.1422,37037,1672.89,1895,2024,130,5.81615102,,,,,1895,2024,130,40.935,1.29092616,34.85504118,1,0.511135072,1
473,4151803,4,4511,RIO BRAVO,"BELOW TAOS JUNCTION BRIDGE NEAR TAOS,NM",US,36.32,-105.7544,25200.7,1844.13,1925,2023,99,0,,,,,1925,2023,99,20.334,0.641253024,25.44584174,1,0.419645561,1
474,4152050,4,4521,COLORADO RIVER,"BELOW YUMA MAIN CANAL WW AT YUMA,AZ",US,32.7317,-114.6319,618715,31.09,1963,2024,62,0,,,,,1963,2024,62,54.284,1.711900224,2.766863942,1,0.001231009,0
475,4152103,4,4521,COLORADO RIVER,"BELOW HOOVER DAM, AZ-NV",US,36.0153,-114.7386,444703,205.89,1934,2021,88,0,,,,,1934,2021,88,388.568,12.25388045,27.55520077,1,0.027898696,1
476,4152110,4,4521,MUDDY RIVER,"NEAR GLENDALE, NV",US,36.643,-114.5397,17560.2,445.01,1950,2024,75,0.974146233,,,,,1950,2024,75,1.208,0.038095488,2.169422216,1,0.009866915,0
477,4152120,4,4521,BILL WILLIAMS RIVER,"BELOW ALAMO DAM, AZ",US,34.2309,-113.6088,11999.5,294.74,1939,2023,85,0,,,,,1939,2023,85,3.036,0.095743296,7.978940456,1,0.00269879,1
478,4152200,4,4521,GILA RIVER,"NEAR REDROCK,NM",US,32.727,-108.6756,7327.1,1246.63,1930,2020,91,7.783556894,,,,,1930,2020,91,5.997,0.189121392,25.81122026,2,0.059804045,1
479,4152202,4,4521,GILA RIVER,"NEAR DOME, AZ",US,32.7609,-114.4205,149831.5,42.42,1905,2024,120,18.76063854,,,,,1905,2024,120,7.481,0.235920816,1.574574212,1,0.00115489,1
480,4152300,4,4521,SALT RIVER,"NEAR ROOSEVELT, ARIZ",US,33.6195,-110.9215,11152.5,663.59,1913,2024,112,0,,,,,1913,2024,112,23.78,0.74992608,67.24286752,1,0.100720127,1
481,4152400,4,4521,VERDE RIVER,"BELOW TANGLE CREEK ABV HORSESHOE DAM, AZ",US,34.0731,-111.7163,15174.8,618.44,1945,2024,80,24.24485805,,,,,1945,2024,80,14.965,0.47193624,31.09999736,1,0.061493407,1
482,4152450,4,4521,COLORADO RIVER,"LEES FERRY, ARIZ.",US,36.8647,-111.5882,289562,946.76,1921,2023,103,0,1911,1984,74,1.013513514,1911,2023,113,410.66,12.95057376,44.72470062,1,0.026354095,1
483,4152465,4,4521,LITTLE COLORADO RIVER,"NEAR CAMERON, ARIZ",US,35.9264,-111.5674,68528.8,1212.86,1947,2023,77,0,,,,,1947,2023,77,5.765,0.18180504,2.652972765,1,0.082060254,0
484,4152466,4,4521,LITTLE COLORADO RIVER,"WOODRUFF, AZ",US,34.7828,-110.0443,20906.5,1563.72,1905,2023,119,19.05969702,1905,2001,97,23.55478861,1905,2023,119,1.291,0.040712976,1.947383637,1,0.10785476,1
485,4152467,4,4521,LITTLE COLORADO RIVER,"NEAR JOSEPH CITY, AZ",US,34.9011,-110.2554,32074.6,1533.48,1970,2021,52,83.31476471,1970,2001,32,54.08970976,1970,2021,52,1.514,0.047745504,1.488576755,1,0.666826389,20
486,4152470,4,4521,PUERCO RIVER,"NEAR CHAMBERS, AZ",US,35.1778,-109.4548,5584,1738.88,1973,2022,50,89.21443971,1973,2001,29,81.10465116,1973,2022,50,0.352,0.011100672,1.987942693,1,0.103153644,31
487,4152602,4,4521,SAN JUAN RIVER,"FARMINGTON, NM",US,36.7228,-108.2256,18751.6,1594.22,1930,2020,91,0,,,,,1930,2020,91,54.93,1.73227248,92.37998251,1,0.299100446,1
488,4152800,4,4521,VIRGIN RIVER,"LITTLEFIELD, ARIZ",US,36.8916,-113.9244,13183.1,537.57,1929,2022,94,0,,,,,1929,2022,94,6.64,0.20939904,15.88389984,1,0.165651095,1
489,4152900,4,4521,SAN FRANCISCO RIVER,"CLIFTON, ARIZ",US,33.0495,-109.2959,7163.9,1047.34,1910,2023,114,11.09121703,,,,,1910,2023,114,6.02,0.18984672,26.50047041,1,0.125284457,1
490,5101071,5,5010,NORMANBY RIVER,KALPOWAR CROSSING,AU,-14.9168,144.211,12930,19.51,2005,2023,19,0,,,,,2005,2023,19,85.375,2.692386,208.2278422,1,0.653520538,1
491,5101162,5,5010,HERBERT RIVER,INGHAM,AU,-18.6327,146.143,8585,1.61,2009,2023,15,0.708072021,,,,,2009,2023,15,123.754,3.902706144,454.5959399,2,0.260523524,3
492,5101163,5,5010,HERBERT RIVER,HRS ABERGOWRIE,AU,-18.49125,145.922213,7487,15.8,1969,2022,54,0,,,,,1969,2022,54,78.501,2.475607536,330.6541386,2,0.242259674,0
493,5101182,5,5011,BELYANDO RIVER,HRS GREGORY DEVELOPMENT ROAD,AU,-21.53,146.86,35326,171.51,1976,2022,47,0,,,,,1976,2022,47,19.524,0.615708864,17.42933998,1,0.03963949,0
494,5101200,5,5011,BURDEKIN RIVER,CLARE,AU,-19.7586,147.244,129900,9.4,1950,2023,74,0.003719685,1950,1994,45,14.36781609,1950,2023,74,293.378,9.251968608,71.22377681,1,0.241117789,1
495,5101285,5,5012,DAWSON RIVER,HRS TAROOM,AU,-25.64,149.79,15851,180.82,1950,2022,73,0,,,,,1950,2022,73,14.109,0.444941424,28.07024314,1,0.474842498,0
496,5101301,5,5012,FITZROY RIVER,THE GAP,AU,-23.089,150.107,135757,8.869,1964,2024,61,0.196203687,1964,1996,33,10.76923077,1964,2024,61,154.307,4.866225552,35.84511703,1,0.222528848,2
497,5101305,5,5012,DAWSON RIVER,HRS UTOPIA DOWNS,AU,-25.7447,149.3299,6026,216.07,1966,2022,57,0.082874275,1966,1994,29,42.46987952,1966,2022,57,4.013,0.126553968,21.00132227,1,0.202096644,0
498,5101390,5,5010,MARY RIVER,HOME PARK,AU,-25.7683,152.527,6845,4.09,1982,2023,42,0.181013677,,,,,1982,2023,42,45.886,1.447060896,211.4040754,1,0.018062957,3
499,5101500,5,5010,BRISBANE RIVER,SAVAGES CROSSING,AU,-27.4397,152.669,10170,18.481,1958,2023,66,1.830092984,,,,,1958,2023,66,27.686,0.873105696,85.85110088,1,0.003090204,11
500,5104230,5,5042,WARREGO RIVER,AUGATHELLA,AU,-25.7928,146.586,8070,365,1967,2024,58,5.413064361,1967,1993,27,75.55555556,1967,2024,58,1.24,0.03910464,4.845680297,1,0.000262777,2
501,5104245,5,5042,PAROO RIVER,HRS CAIWARRO,AU,-28.689072,144.785928,22885,137.06,1967,2022,56,0.08437562,1967,1994,28,36.76012461,1967,2022,56,16.477,0.519618672,22.7056444,2,0.083526342,0
502,5109110,5,5090,GREGORY RIVER,GREGORY DOWNS,AU,-18.6419,139.252,12690,69,1969,2024,56,0.706854497,1970,1972,3,0,1969,2024,56,20.907,0.659323152,51.95611915,2,0.40104273,3
503,5109151,5,5091,FLINDERS RIVER,WALKERS BEND,AU,-18.1617,140.858,106300,2.097,1969,2023,55,2.770167428,,,,,1969,2023,55,101.351,3.196205136,30.06778115,2,0.588474783,1
504,5109161,5,5090,NORMAN RIVER,GLENORE WEIR,AU,-17.86,141.129,39360,4.36,1974,2023,50,52.16178522,,,,,1974,2023,50,53.281,1.680269616,42.68977683,2,0.951349787,48
505,5109170,5,5092,GILBERT RIVER,ROCKFIELDS,AU,-18.2025,142.876,10987,168,1967,2024,58,5.23912521,1967,1995,29,49.2795389,1967,2024,58,45.63,1.43898768,130.9718467,2,0.551987123,6
506,5109201,5,5095,MITCHELL RIVER,DUNBAR,AU,-15.9424,142.374,45000,19.71,2009,2022,14,0,,,,,2009,2022,14,213.14,6.72158304,149.368512,2,0.523815196,0
507,5109203,5,5095,MITCHELL RIVER,HRS O.K. BRIDGE,AU,-16.4720135,144.2904865,7734,174.75,1967,2022,56,0,,,,,1967,2022,56,61.15,1.9284264,249.3439876,2,0.23930601,0
508,5109204,5,5095,WALSH RIVER,HRS TRIMBLES CROSSING,AU,-16.54485,143.78485,8638,115.29,1967,2022,56,0,,,,,1967,2022,56,48.874,1.541290464,178.4314036,2,0.627049659,0
509,5109210,5,5093,LEICHHARDT RIVER,FLORAVILLE HOMESTEAD,AU,-18.233,139.879,23660,9.819,1984,2024,41,7.872860636,,,,,1984,2024,41,71.848,2.265798528,95.76494201,2,0.601616032,2
510,5109220,5,5090,STAATEN RIVER,DORUNDA,AU,-16.5315,142.06,6789,22.405,1990,2024,35,5.181722943,,,,,1990,2024,35,61.877,1.951353072,287.4286452,2,0.502369185,4
511,5110020,5,5101,BARCOO RIVER,HRS BLACKALL,AU,-24.43,145.46,5792,274.07,1969,2023,55,0,,,,,1969,2023,55,2.885,0.09098136,15.70810773,1,0.000488088,1
512,5110400,5,5101,DIAMANTINA RIVER,HRS BIRDSVILLE,AU,-25.9088,139.3667,119033.6,34,1966,2022,57,0,,,,,1966,2022,57,42.751,1.348195536,11.32617627,1,0.378048142,0
513,5202044,5,5021,CLARENCE RIVER,LILYDALE (NEWBOLD CROSSING),AU,-29.51,152.68,16953,9.99,1922,2022,101,2.795345654,1922,2001,80,3.983228512,1922,2022,101,107.306,3.384002016,199.6108073,1,0.12039066,0
514,5202070,5,5021,MACLEAY RIVER,TURNERS FLAT,AU,-30.0076,152.712,9980,11.851,1945,2024,80,8.216397802,1945,2001,57,10.74626866,1945,2024,80,46.523,1.467149328,147.0089507,2,0.003463519,0
515,5202080,5,5021,MANNING RIVER,KILLAWARRA,AU,-31.92,152.31,6642,8.73,1945,2022,78,0.449486301,1945,2001,57,3.709198813,1945,2022,78,56.458,1.780459488,268.060748,1,0.015989848,0
516,5202102,5,5021,HUNTER RIVER,GRETA,AU,-32.6606,151.403,17320,25.63,1968,2024,57,0,1968,2000,33,1.319261214,1968,2024,57,23.455,0.73967688,42.70651732,1,0.4283706,0
517,5202103,5,5021,HUNTER RIVER,SINGLETON,AU,-32.5602,151.171,16400,27.63,1913,2024,112,0,,,,,1913,2024,112,25.394,0.800825184,48.8308039,1,0.476904677,0
518,5202111,5,5021,GOULBURN RIVER,HRS SANDY HOLLOW,AU,-32.35,150.57,6818,113.45,1954,2022,69,0,,,,,1954,2022,69,5.504,0.173574144,25.45822001,2,0.218822986,0
519,5202135,5,5021,NEPEAN RIVER,PENRITH,AU,-33.7468,150.682,11000,14.14,1968,2024,57,21.53869107,,,,,1968,2024,57,35.262,1.112022432,101.0929484,1,0.066726826,12
520,5204101,5,5041,MURRUMBIDGEE RIVER,D/S MAUDE WEIR,AU,-34.4776,144.301,57700,80,1936,2024,89,27.31120098,1936,2000,65,0,1936,2024,89,57.066,1.799633376,31.18948659,1,0.066216957,0
521,5204102,5,5041,MURRUMBIDGEE RIVER,NARRANDERA,AU,-34.7552,146.549,34200,138.04,1915,2024,110,67.62437087,1891,2000,110,19.1749427,1891,2024,134,97.142,3.063470112,89.57514947,1,0.06335244,0
522,5204103,5,5041,MURRUMBIDGEE RIVER,GUNDAGAI,AU,-35.0751,148.107,21100,207.13,1886,2024,139,3.956963539,1891,2000,110,14.53576865,1886,2024,139,113.019,3.564167184,168.917876,1,0.023309237,0
523,5204104,5,5041,MURRUMBIDGEE RIVER,D/S BURRINJUCK DAM,AU,-35.001,148.574,13100,298.6,1961,2024,64,70.17666915,1961,2000,40,0,1961,2024,64,36.21,1.14191856,87.16935573,1,0.020314531,2
524,5204106,5,5041,MURRUMBIDGEE RIVER,D/S BALRANALD WEIR,AU,-34.665,143.492,166000,67,1979,2024,46,0.324218511,1979,2000,22,2.734375,1979,2024,46,32.782,1.033813152,6.227790072,1,0.138504324,0
525,5204107,5,5041,MURRUMBIDGEE RIVER,HRS LOBB HOLES,AU,-35.539928,149.10125,5158,576,1974,2022,49,0,,,,,1974,2022,49,10.018,0.315927648,61.25002869,1,0.000380167,0
526,5204181,5,5042,GWYDIR RIVER,YARRAMAN BRIDGE,AU,-29.4261,149.847,12960,19.1,1929,2024,96,39.19561561,1929,2000,72,48.4741784,1929,2024,96,11.782,0.371557152,28.66953333,1,0.252535633,0
527,5204243,5,5042,PAROO RIVER,HRS WILLARRA CROSSING,AU,-29.23875,144.455339,35239,114.85,1975,2022,48,0,,,,,1975,2022,48,11.339,0.357586704,10.14747025,2,0.106992411,0
528,5204250,5,5042,DARLING RIVER,LOUTH,AU,-30.5347,145.115,489300,96,1905,2023,119,33.65134028,1954,2000,47,21.8018018,1905,2023,119,78.778,2.484343008,5.077341116,1,0.184534199,0
529,5204251,5,5042,DARLING RIVER,BURTUNDY,AU,-33.7464,142.268,647200,42,1941,2024,84,14.81298075,1941,2000,60,0.979020979,1941,2024,84,51.292,1.617544512,2.499296218,1,0.157127028,1
530,5204252,5,5042,DARLING RIVER,MENINDEE U/S WEIR 32,AU,-32.4353,142.38,575000,59,1958,2024,67,2.556322221,1958,2000,43,0.982318271,1958,2024,67,47.657,1.502911152,2.613758525,1,0.342581044,4
531,5204255,5,5042,DARLING RIVER,BOURKE TOWN,AU,-30.0879,145.937,386000,11.13,1895,2024,130,61.733036,1943,2001,59,2.180232558,1895,2024,130,98.015,3.09100104,8.007774715,1,0.254173575,2
532,5204268,5,5041,MURRAY RIVER,LOCK 9 UPSTREAM (764.8 KM),AU,-34.1915,141.597,991000,39,1949,2024,76,11.88857447,1965,1984,20,20,1949,2024,76,180.594,5.695212384,5.746934797,1,0.043330346,0
533,5204300,5,5041,LACHLAN RIVER,BOOLIGAL,AU,-33.8695,144.881,55900,107.1,1907,2024,118,5.151515152,1907,2000,94,6.6367713,1907,2024,118,9.021,0.284486256,5.089199571,2,0.007892754,0
534,5204301,5,5041,LACHLAN RIVER,FORBES (COTTONS WEIR),AU,-33.4108,147.991,19000,294.2,1933,2024,92,0.53258711,1939,1999,61,1.114206128,1933,2024,92,35.272,1.112337792,58.54409432,1,0.076278707,0
535,5204302,5,5041,LACHLAN RIVER,D/S WYANGALA,AU,-33.9825,148.936,8290,338,1913,2024,112,6.558468786,1913,1998,86,6.634146341,1913,2024,112,22.625,0.713502,86.06779252,1,0.000260703,0
536,5204401,5,5042,MACQUARIE RIVER,D/S BURRENDONG DAM,AU,-32.6332,149.081,13980,325,1960,2024,65,6.310679612,1960,2000,41,2.748414376,1960,2024,65,29.255,0.92258568,65.99325322,1,0.235683506,1
537,5204450,5,5042,BARWON RIVER,BREWARRINA,AU,-29.9472,146.864,297850,13,1892,2024,133,0,1930,2000,71,1.300236407,1892,2024,133,65.65,2.0703384,6.950943092,1,0.278770405,0
538,5204451,5,5042,BARWON RIVER,DANGAR BRIDGE (WALGETT),AU,-30.0153,148.061,132200,14.7,1886,2024,139,24.13244823,1886,2000,115,32.65157049,1886,2024,139,57.405,1.81032408,13.69382814,1,0.245715038,0
539,5204452,5,5042,BARWON RIVER,MOGIL MOGIL,AU,-29.353,148.689,64800,17.54,1944,2024,81,2.219938335,1944,2000,57,4.874446086,1944,2024,81,31.223,0.984648528,15.19519333,2,0.112336087,0
540,5204460,5,5042,CULGOA RIVER,BRENDA,AU,-29.0296,147.313,82162.1,16.2,1960,2024,65,5.338809035,1960,2000,41,29.69072165,1960,2024,65,13.187,0.415865232,5.061521456,2,0.231958071,0
541,5304140,5,5041,MURRAY RIVER,BELOW WAKOOL JUNCTION,AU,-34.8472,143.342,116393,64,1929,2024,96,1.019787351,,,,,1929,2024,96,195.162,6.154628832,52.87799809,1,0.113352217,0
542,5404270,5,5041,MURRAY RIVER,OVERLAND CORNER (417.5 KM),AU,-34.1787,140.275,1000001,6,1985,2024,40,0.049814973,1985,2000,16,0,1985,2024,40,181.843,5.734600848,5.734595113,1,0.020467883,0
543,5404271,5,5041,MURRAY RIVER,LOCK 1 DOWNSTREAM,AU,-34.3509,139.616,955018,4,1949,2024,76,12.36264746,,,,,1949,2024,76,185.101,5.837345136,6.112288078,1,0.050346528,1
544,5405090,5,5051,WILLOCHRA CREEK,PARTACOONA,AU,-31.954,138.1,6077.2,107,1973,2020,48,37.10659016,1978,1988,11,1.515151515,1973,2020,48,0.404,0.012740544,2.096449681,1,0.049710062,12
545,5410100,5,5101,COOPER CREEK,HRS CULLYAMURRA WATER HOLE,AU,-27.70125,140.8433,232846,46,1973,2022,50,0,1973,2001,29,21.34502924,1973,2022,50,42.483,1.339743888,5.753776694,1,0.453159641,0
546,5606065,5,5060,IRWIN RIVER,HRS MOUNTAIN BRIDGE,AU,-29.238,115.0351,5224,27.82,1982,2022,41,0,,,,,1982,2022,41,0.883,0.027846288,5.330453292,2,0.060059866,0
547,5606066,5,5060,GREENOUGH RIVER,HRS KARLANEW PEAK,AU,-28.8242,114.8455,11795,54.66,1971,2022,52,0,,,,,1971,2022,52,0.774,0.024408864,2.069424671,2,0.000131848,0
548,5606080,5,5062,MURCHISON RIVER,EMU SPRINGS,AU,-27.8567,114.547,86777.4,152.72,1957,2023,67,1.524028022,1967,1996,30,0,1957,2023,67,10.355,0.32655528,3.763137407,2,0.077659765,4
549,5606100,5,5061,BLACKWOOD RIVER,DARRADUP,AU,-34.0715,115.619,11593,42.48,1955,2024,70,8.566440503,1955,1996,42,0,1955,2024,70,17.489,0.551533104,47.57466609,2,0.290805027,0
550,5606130,5,5060,MURRAY RIVER,BADEN POWELL WTR SPOUT,AU,-32.7722,116.0843,6773,125.83,1952,2022,71,3.05787706,1952,1996,45,0,1952,2022,71,8.478,0.267362208,39.47470958,2,0.001623561,0
551,5607020,5,5074,LEOPOLD RIVER,MOUNT WINIFRED,AU,-18.0152,126.311,5115.4,178,1964,2023,60,12.00543147,1966,1993,28,29.87421384,1964,2023,60,25.087,0.791143632,154.6591922,2,0.517915002,0
552,5607023,5,5074,FITZROY RIVER,DIMOND GORGE,AU,-17.6722,126.028,17151.7,155.27,1962,2024,63,1.3717605,1962,1993,32,22.52010724,1962,2024,63,96.015,3.02792904,176.5381297,2,0.511628543,0
553,5607024,5,5074,FITZROY RIVER,FITZROY CROSSING,AU,-18.2963,125.5263,46350,93.1,1955,2022,68,2.696017809,1955,1996,42,1.414141414,1955,2022,68,154.719,4.879218384,105.269005,2,0.529042834,0
554,5607025,5,5074,FITZROY RIVER,WILLARE,AU,-17.7362,123.646,91902,19,1998,2024,27,0,,,,,1998,2024,27,242.567,7.649592912,83.23641392,2,0.460719844,0
555,5607200,5,5076,GASCOYNE RIVER,HRS NINE MILE BRIDGE,AU,-24.8276,113.7691,72902,8.64,1957,2022,66,0,1957,1996,40,0,1957,2022,66,24.695,0.77878152,10.682581,2,0.160766173,0
556,5607201,5,5076,GASCOYNE RIVER,HRS FISHY POOL,AU,-24.9497,114.6442,71261,81.79,1964,2022,59,0,,,,,1964,2022,59,25.412,0.801392832,11.24588249,2,0.162555528,0
557,5607400,5,5071,ASHBURTON RIVER,NANUTARRA,AU,-22.5443,115.499,71387,60.92,1972,2024,53,2.040165763,1972,1995,24,0,1972,2024,53,24.815,0.78256584,10.96230182,2,0.009307756,2
558,5607410,5,5070,ROBE RIVER,HRS YARRALOOLA,AU,-21.6162,115.9225,7263,56.23,1972,2022,51,0,,,,,1972,2022,51,3.53,0.11132208,15.32728625,2,0.180377275,0
559,5607500,5,5072,DEGREY RIVER,HRS COOLENAR POOL,AU,-20.3114,119.249,53323,22.2,1974,2022,49,0,1974,1994,21,0,1974,2022,49,42.593,1.343212848,25.19012149,2,0.387351876,0
560,5607520,5,5072,SHAW RIVER,HRS NORTH POLE MINE,AU,-21.0943,119.3173,6503,134.63,1967,2022,56,0,,,,,1967,2022,56,6.499,0.204952464,31.51660218,2,0.366112915,0
561,5608095,5,5083,ORD RIVER,HRS OLD ORD HOMESTEAD,AU,-17.3738,128.8537,19587,142.89,1970,2022,53,0,1970,1993,24,13.97058824,1970,2022,53,62.194,1.961349984,100.135293,2,0.433974791,0
562,5608096,5,5083,ORD RIVER,TARRARA BAR,AU,-15.5696,128.693,51028,28.35,1998,2024,27,0,,,,,1998,2024,27,190.875,6.019434,117.9633535,2,0.324543115,0
563,5708094,5,5083,NEGRI RIVER,HRS MISTAKE CK HOMESTEAD,AU,-17.1775,129.0925,7490,145.7,1970,2022,53,0,,,,,1970,2022,53,18.376,0.579505536,77.37056555,2,0.102930859,0
564,5708110,5,5084,VICTORIA RIVER,COOLIBAH HOMESTEAD,AU,-15.5515,130.964,44900,22.15,1953,2024,72,20.16041956,1953,2001,49,21.53846154,1953,2024,72,149.014,4.699305504,104.6615925,2,0.033450799,16
565,5708126,5,5084,WEST BAINES RIVER,VICTORIA HIGHWAY,AU,-15.934,129.739,10204,19.64,1960,2024,65,40.28399312,1961,2001,41,42.43697479,1960,2024,65,54.051,1.704552336,167.0474653,2,0.576418863,14
566,5708141,5,5081,DALY RIVER,HRS U/S DORISVALE CROSSING,AU,-14.3633,131.5737,33227,26.4,1965,2022,58,0,,,,,1965,2022,58,180.784,5.701204224,171.583478,2,0.654409797,0
567,5708142,5,5081,KATHERINE RIVER,HRS RAILWAY BRIDGE,AU,-14.4633,132.2567,8357,27.53,1961,2022,62,0,,,,,1961,2022,62,73.413,2.315152368,277.0315147,2,0.805765623,0
568,5708145,5,5081,DALY RIVER,HRS MOUNT NANCAR,AU,-13.83085,130.73585,47652,26.02,1967,2022,56,3.118947107,1969,2001,33,1.047120419,1967,2022,56,257.928,8.134017408,170.6962438,2,0.335802775,0
569,5708148,5,5081,DALY RIVER,GOURLEY,AU,-13.9041,130.801,46300,25.99,1960,2021,62,51.53560731,1965,1974,10,41.37931034,1960,2021,62,263.241,8.301568176,179.2995286,2,0.384144617,1
570,5709100,5,5096,ROPER RIVER,RED ROCK,AU,-14.6968,134.422,47400,31.27,1966,2023,58,12.51206797,1966,2001,36,8.095238095,1966,2023,58,94.717,2.986995312,63.01677873,2,0.010105271,0
571,5709105,5,5096,ELSEY CREEK,HRS WARLOCH PONDS,AU,-15.0854,133.1229,6784,27.69,1969,2022,54,0,,,,,1969,2022,54,4.377,0.138033072,20.34685613,2,0.368645594,0
572,5709110,5,5094,MCARTHUR RIVER,M.I.M. PUMP,AU,-16.4519,136.085,10400,37,1969,2024,56,13.06981675,1969,2001,33,12.5984252,1969,2024,56,19.042,0.600508512,57.74120308,2,0.358697957,2
573,5709112,5,5094,MCARTHUR RIVER,BORROLOOLA CROSSING,AU,-16.0818,136.317,15700,31.435,1975,2024,50,14.89458689,,,,,1975,2024,50,52.89,1.66793904,106.2381554,2,0.533252233,7
574,6594090,6,6941,JORDAN RIVER,BAPTISM SITE,IL,31.84,35.55,16500,-999,2012,2023,12,0,,,,,2012,2023,12,3.832,0.120845952,7.323997091,2,0.018573962,0
